[{"id":1,"name":"起湾居委会","lat":"22.535877","lng":"113.406420","capacity":18,"availBike":5,"address":"中山市东区起湾道富丽路交叉口东南角"},{"id":2,"name":"香格里拉酒店","lat":"22.533197","lng":"113.406090","capacity":24,"availBike":15,"address":"中山市东区起湾道东侧“香格里拉”公交站旁"},{"id":3,"name":"水云轩","lat":"22.529846","lng":"113.405150","capacity":24,"availBike":10,"address":"中山市东区起湾道东侧“水云轩”公交站旁"},{"id":4,"name":"竹苑小学","lat":"22.525081","lng":"113.405610","capacity":20,"availBike":3,"address":"中山市东区孙文东路起湾道交叉口西南角"},{"id":5,"name":"盛景园北","lat":"22.521417","lng":"113.407160","capacity":20,"availBike":3,"address":"中山市东区起湾道盛景园竖招牌南侧"},{"id":6,"name":"盛景园南","lat":"22.518123","lng":"113.408210","capacity":20,"availBike":14,"address":"中山市东区起湾道中山四路交叉口西北角"},{"id":7,"name":"紫马岭公园西门","lat":"22.514455","lng":"113.409470","capacity":30,"availBike":20,"address":"中山市东区起湾道紫马岭公园西门对面马路"},{"id":8,"name":"新村市场","lat":"22.511205","lng":"113.410106","capacity":22,"availBike":16,"address":"中山市东区起湾道新村市场对面马路"},{"id":9,"name":"全球通公园东","lat":"22.509138","lng":"113.410434","capacity":30,"availBike":21,"address":"中山市东区起湾道全球通公园东侧"},{"id":11,"name":"竹苑壹加壹","lat":"22.522083","lng":"113.405580","capacity":40,"availBike":33,"address":"中山市东区竹苑路紫竹街交叉口西北角"},{"id":12,"name":"裕中大厦","lat":"22.518501","lng":"113.404540","capacity":40,"availBike":25,"address":"中山市东区中山四路裕中大厦东南角"},{"id":13,"name":"盛景酒店","lat":"22.515201","lng":"113.408130","capacity":22,"availBike":0,"address":"中山市东裕路北侧“盛景酒店”公交站旁"},{"id":14,"name":"全球通公园西","lat":"22.508134","lng":"113.407825","capacity":20,"availBike":9,"address":"中山市东区博爱六路全球通公园南侧"},{"id":15,"name":"朗晴轩","lat":"22.507875","lng":"113.409080","capacity":24,"availBike":5,"address":"中山市东区博爱六路朗晴轩北门旁"},{"id":16,"name":"市一中","lat":"22.505048","lng":"113.411000","capacity":20,"availBike":17,"address":"中山市东区兴文路中高中部北门对面"},{"id":17,"name":"一中南","lat":"22.497810","lng":"113.407980","capacity":40,"availBike":24,"address":"中山市东区城桂路中初中部停车潮角"},{"id":18,"name":"永怡花园","lat":"22.536125","lng":"113.404480","capacity":28,"availBike":14,"address":"中山市石岐区富丽路永怡花园北区南门旁"},{"id":19,"name":"永怡花园市场","lat":"22.530779","lng":"113.402920","capacity":20,"availBike":7,"address":"中山市石岐区豪程路永怡花园市场门口"},{"id":21,"name":"东苑路北","lat":"22.525033","lng":"113.402965","capacity":20,"availBike":14,"address":"中山市东区孙文东路东苑路交叉口东南角"},{"id":22,"name":"东苑路中","lat":"22.523147","lng":"113.402774","capacity":20,"availBike":9,"address":"中山市东区东苑路天竹街交叉口东南角"},{"id":23,"name":"竹苑路口","lat":"22.522083","lng":"113.403514","capacity":20,"availBike":1,"address":"中山市东区东苑路竹苑路交叉口东北角"},{"id":24,"name":"东苑路南","lat":"22.519803","lng":"113.403010","capacity":18,"availBike":7,"address":"中山市东区东苑路银竹街交叉口东南角"},{"id":25,"name":"顺景花园","lat":"22.518263","lng":"113.402750","capacity":20,"availBike":8,"address":"中山市东区中山四路东苑路交叉口西南角"},{"id":26,"name":"城市客栈","lat":"22.514787","lng":"113.403650","capacity":24,"availBike":6,"address":"中山市东区东苑路东裕路交叉口西南角"},{"id":28,"name":"大东裕大厦","lat":"22.508196","lng":"113.404895","capacity":40,"availBike":18,"address":"中山市东区博爱五路东苑南路路口东北角"},{"id":29,"name":"交警支队","lat":"22.504783","lng":"113.404285","capacity":30,"availBike":9,"address":"中山市东区兴文路西侧交警支队公交站旁"},{"id":30,"name":"军分区","lat":"22.500789","lng":"113.403100","capacity":20,"availBike":4,"address":"中山市东区城桂路东苑南路交叉口西北角"},{"id":31,"name":"中山学院北门","lat":"22.536527","lng":"113.399200","capacity":40,"availBike":12,"address":"中山市石岐区中山学院北门不二碗瑞凌快印"},{"id":32,"name":"市人大","lat":"22.528946","lng":"113.396846","capacity":20,"availBike":13,"address":"中山市东区学院路西南侧市人大公交站旁"},{"id":33,"name":"假日广场1","lat":"22.527816","lng":"113.396950","capacity":30,"availBike":4,"address":"中山市石岐区兴中道西侧假日广场人行道"},{"id":34,"name":"半山翠苑","lat":"22.526106","lng":"113.399974","capacity":20,"availBike":15,"address":"中山市东区孙文东路半山翠苑南门旁"},{"id":35,"name":"兴中园","lat":"22.523565","lng":"113.396945","capacity":30,"availBike":7,"address":"中山市东区兴中道兴中园东门旁"},{"id":36,"name":"市政府西","lat":"22.522083","lng":"113.398390","capacity":30,"availBike":18,"address":"中山市东区松苑路金龙西街路口北侧"},{"id":37,"name":"市政府东","lat":"22.522083","lng":"113.400830","capacity":22,"availBike":10,"address":"中山市东区松苑路龙井街交叉口东北角"},{"id":38,"name":"中级人民法院","lat":"22.520463","lng":"113.396890","capacity":30,"availBike":20,"address":"中山市东区兴中道中级人民法院人行道"},{"id":39,"name":"建设局","lat":"22.519189","lng":"113.397495","capacity":26,"availBike":19,"address":"中山市东区兴中道中山四路交叉口东北角"},{"id":40,"name":"库充北","lat":"22.518363","lng":"113.400450","capacity":30,"availBike":22,"address":"中山市东区中山四路库充牌坊东侧"},{"id":41,"name":"地税局","lat":"22.515363","lng":"113.397360","capacity":30,"availBike":6,"address":"中山市东区兴中道地税局路段人行道"},{"id":42,"name":"翡翠花园西门","lat":"22.514995","lng":"113.398880","capacity":30,"availBike":18,"address":"中山市东区东裕路翠盈街交叉口西北角"},{"id":44,"name":"置禾超市","lat":"22.514911","lng":"113.401160","capacity":24,"availBike":15,"address":"中山市东区东裕路库充大街交叉口东南角"},{"id":45,"name":"体育场东","lat":"22.513479","lng":"113.396590","capacity":40,"availBike":24,"address":"中山市东区兴中道体育场东入口北侧"},{"id":47,"name":"名树园","lat":"22.510631","lng":"113.397310","capacity":30,"availBike":17,"address":"中山市东区兴中道东侧名树园公交站旁"},{"id":49,"name":"文化艺术中心","lat":"22.508273","lng":"113.398840","capacity":20,"availBike":1,"address":"中山市东区博爱五路文化艺术中心北入口旁"},{"id":50,"name":"孙文公园","lat":"22.506176","lng":"113.397120","capacity":22,"availBike":13,"address":"中山市东区孙文公园北门旁"},{"id":51,"name":"孙文公园驿站","lat":"22.505304","lng":"113.395244","capacity":36,"availBike":19,"address":"中山市东区孙文公园西门停车场内"},{"id":52,"name":"博爱医院","lat":"22.503653","lng":"113.397716","capacity":40,"availBike":17,"address":"中山市东区孙文公园东门旁"},{"id":54,"name":"金钟水库驿站1","lat":"22.491899","lng":"113.397990","capacity":30,"availBike":24,"address":"中山市东区金钟水库驿站停车场内"},{"id":56,"name":"莲兴酒店","lat":"22.537393","lng":"113.392010","capacity":20,"availBike":5,"address":"中山市石岐区宏基路壹加壹北门旁"},{"id":57,"name":"大信新都汇1","lat":"22.538301","lng":"113.389410","capacity":42,"availBike":29,"address":"中山市石岐区莲塘北路大信新都汇南门旁"},{"id":58,"name":"石岐职中","lat":"22.534338","lng":"113.387355","capacity":20,"availBike":5,"address":"中山市石岐区莲塘路莲员西门路口西侧人行道"},{"id":59,"name":"人民医院","lat":"22.529441","lng":"113.389670","capacity":42,"availBike":19,"address":"中山市石岐区孙文东路人民医院公交枢纽站"},{"id":60,"name":"莲兴路口","lat":"22.527395","lng":"113.390605","capacity":24,"availBike":16,"address":"中山市石岐区孙文东路莲兴路路口东南角"},{"id":62,"name":"金鹰广场","lat":"22.526121","lng":"113.394720","capacity":20,"availBike":15,"address":"中山市东区孙文东路旧威力洗衣机厂"},{"id":63,"name":"华柏路桂园路口","lat":"22.524595","lng":"113.389380","capacity":16,"availBike":10,"address":"中山市东区华柏路华柏园垃圾站旁"},{"id":64,"name":"威力村","lat":"22.525023","lng":"113.391960","capacity":22,"availBike":5,"address":"中山市东区华苑大街桂圆路路口东侧"},{"id":65,"name":"华侨中学初中部","lat":"22.524355","lng":"113.388194","capacity":20,"availBike":14,"address":"中山市石岐区民族东路华柏园人行道"},{"id":66,"name":"老干中心","lat":"22.522762","lng":"113.388630","capacity":24,"availBike":0,"address":"中山市石岐区华柏路老干中心正门旁"},{"id":67,"name":"华苑大街路口","lat":"22.522560","lng":"113.392190","capacity":32,"availBike":12,"address":"中山市柏苑路华苑大街交叉口西南角"},{"id":68,"name":"松苑壹加壹","lat":"22.522293","lng":"113.395240","capacity":24,"availBike":10,"address":"中山市东区柏苑路康乐大街交叉口东北角"},{"id":69,"name":"建设街","lat":"22.521453","lng":"113.389560","capacity":20,"availBike":6,"address":"中山市东区建设街兴华路交叉口西南角"},{"id":70,"name":"柏苑新村","lat":"22.521314","lng":"113.392840","capacity":16,"availBike":4,"address":"中山市东区兴华路柏苑小学北侧"},{"id":71,"name":"康乐大街南","lat":"22.520471","lng":"113.394920","capacity":20,"availBike":3,"address":"中山市东区康乐大街众旺百货对面"},{"id":72,"name":"石岐沃尔玛","lat":"22.519403","lng":"113.387120","capacity":24,"availBike":19,"address":"中山市石岐区中山二路岐关西路交叉口西南角"},{"id":73,"name":"中银大厦","lat":"22.518798","lng":"113.392630","capacity":30,"availBike":24,"address":"中山市东区中山三路银通街交叉口东南角"},{"id":74,"name":"岐关西","lat":"22.518303","lng":"113.387584","capacity":30,"availBike":15,"address":"中山市东区岐关西华夏街东北角"},{"id":75,"name":"益华百货","lat":"22.516557","lng":"113.392280","capacity":20,"availBike":15,"address":"中山市东区银通街中银大厦公交站南侧"},{"id":76,"name":"恒信花园","lat":"22.515585","lng":"113.386880","capacity":22,"availBike":8,"address":"中山市东区岐关西路体育路口东北角"},{"id":77,"name":"国元证券","lat":"22.515283","lng":"113.389514","capacity":20,"availBike":15,"address":"中山市东区岐关西马得利旁"},{"id":78,"name":"路易酒店","lat":"22.514513","lng":"113.392280","capacity":38,"availBike":10,"address":"中山市东区体育路银通街交叉口西南角"},{"id":79,"name":"体育场北","lat":"22.515103","lng":"113.394580","capacity":30,"availBike":11,"address":"中山市东区体育路体育街路口西北角"},{"id":80,"name":"雍景园东门","lat":"22.511671","lng":"113.392375","capacity":30,"availBike":18,"address":"中山市东区银通街雍景园东门对面"},{"id":81,"name":"银通街博爱路口","lat":"22.509838","lng":"113.391795","capacity":20,"availBike":10,"address":"中山市东区博爱四路银通街路口西北角"},{"id":82,"name":"港航管理局","lat":"22.507255","lng":"113.403340","capacity":30,"availBike":25,"address":"中山市东区大东裕大道港航管理局西门对面"},{"id":83,"name":"沙岗村北","lat":"22.510095","lng":"113.385820","capacity":16,"availBike":3,"address":"中山市东区博爱三路沙岗正街大石旁"},{"id":84,"name":"南下码头","lat":"22.511146","lng":"113.385270","capacity":18,"availBike":8,"address":"中山市东区岐关西路南下新码头迎阳大石前"},{"id":85,"name":"中山电大","lat":"22.529423","lng":"113.385810","capacity":20,"availBike":12,"address":"中山市石岐区孙文中路电视大学门口"},{"id":86,"name":"中山纪念堂","lat":"22.527441","lng":"113.383140","capacity":30,"availBike":17,"address":"中山市石岐区孙文中路中山纪念堂正门"},{"id":88,"name":"民生路天桥","lat":"22.519928","lng":"113.382884","capacity":30,"availBike":11,"address":"中山市石岐区中山二路民生路天桥东北角"},{"id":91,"name":"民权路中","lat":"22.522127","lng":"113.379280","capacity":22,"availBike":1,"address":"中山市石岐区民权路联通营厅门前"},{"id":92,"name":"亭子下大街天桥","lat":"22.519550","lng":"113.379080","capacity":20,"availBike":0,"address":"中山市石岐区中山二路亭子下天桥西南角"},{"id":93,"name":"中山公园","lat":"22.531891","lng":"113.379480","capacity":30,"availBike":2,"address":"中山市石岐区光明路中山公园牌坊对面"},{"id":95,"name":"悦来路逢源路口","lat":"22.525228","lng":"113.377216","capacity":30,"availBike":14,"address":"中山市石岐区悦来路泰安路口西南角"},{"id":96,"name":"悦来路民权路口","lat":"22.522306","lng":"113.375980","capacity":30,"availBike":19,"address":"中山市石岐区悦来路民权路交叉口西北角"},{"id":97,"name":"交通局","lat":"22.517109","lng":"113.375064","capacity":40,"availBike":24,"address":"中山市石岐区悦来南路南安路交叉口东北角"},{"id":100,"name":"永胜数码广场","lat":"22.523019","lng":"113.372950","capacity":20,"availBike":12,"address":"中山市石岐区安栏路永胜数码广场对面"},{"id":102,"name":"光明桥","lat":"22.529401","lng":"113.371750","capacity":20,"availBike":14,"address":"中山市石岐区西堤路光明桥"},{"id":103,"name":"富华酒店","lat":"22.527856","lng":"113.371486","capacity":40,"availBike":19,"address":"中山市西区富华道西堤路西北角"},{"id":104,"name":"喜来登酒店","lat":"22.525280","lng":"113.371900","capacity":30,"availBike":22,"address":"中山市西区西堤路中昨人行天桥下"},{"id":106,"name":"沙岗墟","lat":"22.539893","lng":"113.406620","capacity":38,"availBike":27,"address":"中山市东区起湾道沙岗墟隧道出口旁"},{"id":107,"name":"宏基社区居委会","lat":"22.538835","lng":"113.403510","capacity":24,"availBike":11,"address":"中山市石岐区豪程路宏基社区居委会旁"},{"id":108,"name":"岐乐花园","lat":"22.540580","lng":"113.402410","capacity":30,"availBike":13,"address":"中山市石岐区富康路岐乐花园东入口对面马路"},{"id":109,"name":"侨中高中部","lat":"22.551883","lng":"113.400100","capacity":40,"availBike":27,"address":"中山市石岐区大沙南路侨中高中部南门口"},{"id":110,"name":"东盛花园","lat":"22.550609","lng":"113.395366","capacity":20,"availBike":11,"address":"中山市石岐区东明路西侧东盛花园公交站旁"},{"id":111,"name":"东明花园","lat":"22.547004","lng":"113.394660","capacity":20,"availBike":12,"address":"中山市石岐区东明路东侧东明花园公交站旁"},{"id":113,"name":"名雅豪庭","lat":"22.544922","lng":"113.397900","capacity":30,"availBike":22,"address":"中山市石岐区东华明广悦路口西北角"},{"id":115,"name":"恒基花园4期","lat":"22.543289","lng":"113.396730","capacity":20,"availBike":4,"address":"中山市石岐区康华路东华路交叉口西北角"},{"id":116,"name":"天明豪庭","lat":"22.548936","lng":"113.399790","capacity":30,"availBike":13,"address":"中山市石岐区东华路东盛路路口西北角"},{"id":117,"name":"石岐购书中心","lat":"22.541912","lng":"113.391216","capacity":24,"availBike":6,"address":"中山市石岐区宏基路石岐购书中心对面"},{"id":118,"name":"北区公园","lat":"22.541454","lng":"113.395786","capacity":40,"availBike":14,"address":"中山市石岐区宏基路北区公园南侧"},{"id":119,"name":"富逸装饰广场","lat":"22.540113","lng":"113.374640","capacity":32,"availBike":23,"address":"中山市石岐区莲员西路永全街交叉口北侧沿路边布置"},{"id":121,"name":"苏华赞医院","lat":"22.537845","lng":"113.384240","capacity":18,"availBike":7,"address":"中山市石岐区莲员东路苏华赞医院公交站旁"},{"id":122,"name":"电机厂","lat":"22.533008","lng":"113.373164","capacity":20,"availBike":9,"address":"中山市石岐区青溪路西侧电机厂公交站旁"},{"id":123,"name":"逸仙湖公园","lat":"22.533603","lng":"113.380596","capacity":30,"availBike":18,"address":"中山市石岐区湖滨路逸仙湖公园正门北侧"},{"id":124,"name":"南安路西","lat":"22.515923","lng":"113.370784","capacity":30,"availBike":11,"address":"中山市石岐区南安路北侧靠路缘石6棵树之间"},{"id":125,"name":"第一城","lat":"22.512023","lng":"113.368920","capacity":40,"availBike":30,"address":"中山市石岐悦秀路博爱交叉口东南角沿路缘石4棵树之间"},{"id":126,"name":"悦来南路南安路口","lat":"22.515840","lng":"113.375736","capacity":30,"availBike":14,"address":"中山市石岐区南安路口东南角靠花基布置"},{"id":127,"name":"南安路东","lat":"22.515840","lng":"113.377930","capacity":30,"availBike":18,"address":"中山市石岐区南安路南侧靠路缘石4棵树之间"},{"id":128,"name":"悦来南路博爱路口","lat":"22.513059","lng":"113.374904","capacity":29,"availBike":15,"address":"中山市石岐悦来南路东侧加勒比连锁酒吧对面靠花基布置"},{"id":130,"name":"比华利山庄","lat":"22.531860","lng":"113.412050","capacity":24,"availBike":11,"address":"中山市东区富湾南路比华利山庄公交站旁"},{"id":132,"name":"紫茵庭园","lat":"22.526767","lng":"113.410120","capacity":20,"availBike":10,"address":"中山市东区孙文东路富湾南路口东北角"},{"id":133,"name":"东区防护所","lat":"22.523713","lng":"113.411760","capacity":24,"availBike":9,"address":"中山市东区桃苑路东区防保所"},{"id":134,"name":"奕翠园","lat":"22.525463","lng":"113.416126","capacity":30,"availBike":12,"address":"中山市东区孙文东路东文路口西南角"},{"id":136,"name":"紫马岭公园","lat":"22.518964","lng":"113.412820","capacity":40,"availBike":31,"address":"中山市东区中山五路紫马岭公园广场东侧"},{"id":137,"name":"万家广场","lat":"22.521219","lng":"113.418360","capacity":40,"availBike":25,"address":"中山市东区东文路万佳百货西出口旁"},{"id":138,"name":"东区办事处","lat":"22.521751","lng":"113.422435","capacity":24,"availBike":10,"address":"中山市东区中山五路东区办事处公交站西侧"},{"id":139,"name":"中山党校","lat":"22.508779","lng":"113.417160","capacity":30,"availBike":18,"address":"中山市中山党校公交站东侧靠围墙树间"},{"id":140,"name":"帝璟东方","lat":"22.504821","lng":"113.414940","capacity":30,"availBike":9,"address":"中山市东区兴文路帝璟东方公交站东侧"},{"id":141,"name":"博览中心","lat":"22.508905","lng":"113.421016","capacity":20,"availBike":12,"address":"中山市东区博爱六路博览中心正门广场内西侧"},{"id":142,"name":"博览中心南门","lat":"22.506405","lng":"113.422374","capacity":20,"availBike":10,"address":"中山市东区兴文路博览中心南门公交站西侧"},{"id":143,"name":"小鳌溪驿站","lat":"22.512390","lng":"113.429740","capacity":30,"availBike":11,"address":"中山市东区博爱六路小鳌溪驿站门口"},{"id":144,"name":"三溪村北","lat":"22.507007","lng":"113.428240","capacity":20,"availBike":6,"address":"中山市东区兴文路三溪村公交站西侧"},{"id":145,"name":"三溪村西","lat":"22.504327","lng":"113.426840","capacity":20,"availBike":9,"address":"中山市东区长逸路三溪村公交站对面"},{"id":146,"name":"吉之岛","lat":"22.518674","lng":"113.374690","capacity":30,"availBike":27,"address":"中山市石岐区悦来南路吉之岛东入口旁"},{"id":147,"name":"石岐中学","lat":"22.542240","lng":"113.401386","capacity":40,"availBike":23,"address":"中山市石岐中学公交站旁"},{"id":148,"name":"蓝波湾小区","lat":"22.514015","lng":"113.360360","capacity":30,"availBike":6,"address":"中山市西区博爱二路蓝波湾南入口旁"},{"id":149,"name":"西区货运场","lat":"22.516973","lng":"113.360010","capacity":20,"availBike":12,"address":"中山市西区江湾路货运场对面"},{"id":150,"name":"愉翠雅园","lat":"22.522127","lng":"113.359290","capacity":20,"availBike":8,"address":"中山市西区西河东路愉翠雅园南门对面"},{"id":151,"name":"西区政府","lat":"22.525419","lng":"113.363470","capacity":30,"availBike":18,"address":"中山市西区升华路香山大街路口西南角"},{"id":153,"name":"西区邮局","lat":"22.526468","lng":"113.356200","capacity":24,"availBike":3,"address":"中山市西区富华道翠景道交叉口西南角"},{"id":154,"name":"汽车总站","lat":"22.527048","lng":"113.350190","capacity":30,"availBike":16,"address":"中山市西区富华立交桥西北角"},{"id":155,"name":"西区供电公司","lat":"22.526880","lng":"113.361700","capacity":30,"availBike":0,"address":"中山市西区岐沙路南区电网北门对面"},{"id":156,"name":"长洲牌坊","lat":"22.527321","lng":"113.365150","capacity":18,"availBike":6,"address":"中山市西区富华道长洲牌坊对面"},{"id":157,"name":"西区电脑城","lat":"22.527776","lng":"113.366580","capacity":30,"availBike":21,"address":"中山市西区富华道西区电脑城门口"},{"id":159,"name":"中山一桥北","lat":"22.523199","lng":"113.367870","capacity":20,"availBike":5,"address":"中山市西区中山路西河东路口西南角"},{"id":160,"name":"中山一桥下","lat":"22.520363","lng":"113.368236","capacity":20,"availBike":12,"address":"中山市西区中山桥南波路东南角"},{"id":161,"name":"东明花园南","lat":"22.544783","lng":"113.391670","capacity":30,"availBike":15,"address":"中山市石岐区康华路30号"},{"id":162,"name":"金钻酒店","lat":"22.546528","lng":"113.387930","capacity":20,"availBike":18,"address":"中山市石岐区康华路湖滨北路交叉口东北角"},{"id":163,"name":"德兴火锅","lat":"22.552198","lng":"113.385010","capacity":20,"availBike":14,"address":"中山市石岐区青溪路西德兴火锅北侧"},{"id":165,"name":"大信体育公园","lat":"22.558168","lng":"113.394885","capacity":40,"availBike":19,"address":"中山市石岐区兴盛路东侧小区门口对面"},{"id":166,"name":"民科东路口","lat":"22.562713","lng":"113.397235","capacity":20,"availBike":5,"address":"中山市石岐区东明北路民科东路口交叉口东北角"},{"id":167,"name":"大信海岸家园","lat":"22.560615","lng":"113.392720","capacity":40,"availBike":17,"address":"中山市石岐区大信海岸家园公交站"},{"id":168,"name":"中山北站","lat":"22.563825","lng":"113.389606","capacity":40,"availBike":28,"address":"中山市石岐区轻轨中山北站广场西侧"},{"id":169,"name":"湖滨路北","lat":"22.542446","lng":"113.386080","capacity":24,"availBike":11,"address":"中山市石岐区湖滨中路宏基路路口东北角"},{"id":172,"name":"沙岗墟北","lat":"22.541046","lng":"113.409700","capacity":30,"availBike":22,"address":"中山市东区康华路沙岗墟北公交站旁"},{"id":173,"name":"东区社保分局","lat":"22.540531","lng":"113.415330","capacity":20,"availBike":9,"address":"中山市东区康华路长江北路口西南角"},{"id":174,"name":"白沙湾","lat":"22.541889","lng":"113.416286","capacity":20,"availBike":9,"address":"中山市长江北路老富头村口公交站旁"},{"id":177,"name":"起湾沙路路口","lat":"22.554313","lng":"113.417156","capacity":20,"availBike":11,"address":"中山市东区长江北路起湾沙路口东北侧"},{"id":178,"name":"长江北大桥","lat":"22.563629","lng":"113.418720","capacity":20,"availBike":8,"address":"中山市东区长江北路东侧长江北大桥公交港湾旁"},{"id":179,"name":"白沙湾驿站","lat":"22.567358","lng":"113.417400","capacity":30,"availBike":12,"address":"中山市东区白沙湾驿站长江北大桥桥底"},{"id":180,"name":"东祥路口","lat":"22.551382","lng":"113.415675","capacity":20,"availBike":6,"address":"中山市长江北东祥路交叉口西北角"},{"id":181,"name":"白水井大街西","lat":"22.522245","lng":"113.383410","capacity":18,"availBike":4,"address":"中山市石岐区民生路白水井大街路口东南角"},{"id":182,"name":"民权路东","lat":"22.522089","lng":"113.381750","capacity":24,"availBike":10,"address":"中山市石岐区民权路华力路西角"},{"id":183,"name":"金都城","lat":"22.526985","lng":"113.378020","capacity":30,"availBike":12,"address":"中山市石岐区悦来路金都城对面"},{"id":184,"name":"下披头","lat":"22.529451","lng":"113.438360","capacity":30,"availBike":15,"address":"中山市东区路口西南角南侧公交站东侧"},{"id":185,"name":"公交城东站场","lat":"22.525827","lng":"113.443120","capacity":30,"availBike":19,"address":"中山市东区公交城东站踌公区门口"},{"id":186,"name":"长洲公园","lat":"22.530328","lng":"113.363600","capacity":30,"availBike":8,"address":"中山市西区长洲路南大街路口南角"},{"id":187,"name":"翠景湾","lat":"22.532732","lng":"113.354200","capacity":30,"availBike":19,"address":"中山市西区翠华街翠景湾南门斜对面"},{"id":188,"name":"翠景文化中心","lat":"22.529729","lng":"113.355330","capacity":30,"availBike":9,"address":"中山市西区翠景路翠景文化中心公交站站牌后面"},{"id":189,"name":"西区公安分局","lat":"22.526983","lng":"113.354015","capacity":24,"availBike":13,"address":"中山市西区富华道西区分安分局东南角"},{"id":190,"name":"延龄路","lat":"22.532613","lng":"113.383300","capacity":21,"availBike":12,"address":"中山市石岐区延龄路置宏街路口东北角"},{"id":191,"name":"槎南路东","lat":"22.506923","lng":"113.389900","capacity":20,"availBike":4,"address":"中山市东区槎南路北侧槎南路东公交站旁"},{"id":192,"name":"朗晴假日东","lat":"22.505966","lng":"113.387160","capacity":20,"availBike":0,"address":"中山市沙岗路朗晴假日三期路口东角"},{"id":193,"name":"槎桥村委","lat":"22.502798","lng":"113.383360","capacity":30,"availBike":16,"address":"中山市东区布置于路口东南角沿槎南路路边布置"},{"id":194,"name":"朗晴假日北","lat":"22.508913","lng":"113.382976","capacity":30,"availBike":27,"address":"中山市东区广珠公路腾讯科技南入口旁"},{"id":196,"name":"悦来南路南","lat":"22.508628","lng":"113.375316","capacity":20,"availBike":10,"address":"中山市南区悦来南路白石南路东南角"},{"id":197,"name":"树木园北门","lat":"22.496553","lng":"113.376930","capacity":40,"availBike":24,"address":"中山市南区树木园北入口西侧停车场"},{"id":199,"name":"银星花园","lat":"22.505336","lng":"113.369910","capacity":20,"availBike":11,"address":"中山市悦秀路东侧“银星花园”公交站旁"},{"id":200,"name":"交通执法局","lat":"22.503671","lng":"113.371750","capacity":20,"availBike":7,"address":"中山市南区悦来南路交通执法局门口"},{"id":203,"name":"恒海花园","lat":"22.506313","lng":"113.365794","capacity":20,"availBike":10,"address":"中山市南区白石南路恒海花园北门内"},{"id":204,"name":"碧堤湾畔","lat":"22.505420","lng":"113.363080","capacity":20,"availBike":12,"address":"中山市南区白石南路恒海路路口东南角"},{"id":205,"name":"万科城市风景","lat":"22.498317","lng":"113.365410","capacity":40,"availBike":13,"address":"中山市南区万科城市风景正门树间"},{"id":206,"name":"公路局养征所","lat":"22.495739","lng":"113.363056","capacity":22,"availBike":13,"address":"中山市南区城南路南兴路路口东南角"},{"id":207,"name":"南区文化中心","lat":"22.492466","lng":"113.364566","capacity":30,"availBike":17,"address":"中山市南区康南路兴路路口东南角"},{"id":209,"name":"星华路日华路路口","lat":"22.489137","lng":"113.365610","capacity":30,"availBike":19,"address":"中山市南区日化路星华苑路口树间沿路边布置"},{"id":210,"name":"南区市场","lat":"22.490993","lng":"113.359780","capacity":24,"availBike":13,"address":"中山市南区城南二路月华路口东南角"},{"id":211,"name":"南区医院","lat":"22.487138","lng":"113.356950","capacity":40,"availBike":20,"address":"中山市南区南区医院门口吉兴商店沿路边布置"},{"id":212,"name":"恒美村","lat":"22.481165","lng":"113.356570","capacity":30,"availBike":15,"address":"中山市城南路东侧，恒美牌坊沿路边布置"},{"id":216,"name":"城南客运站","lat":"22.474943","lng":"113.355140","capacity":28,"availBike":13,"address":"中山市南区城南三路城南客运站东侧"},{"id":246,"name":"金柏酒店","lat":"22.522899","lng":"113.364260","capacity":30,"availBike":10,"address":"中山市西区升华路西河东路口东南角"},{"id":247,"name":"凯茵豪园正门","lat":"22.500856","lng":"113.453914","capacity":18,"availBike":3,"address":"中山市景观路凯茵豪园正门"},{"id":248,"name":"凯茵新城碧云天","lat":"22.507042","lng":"113.462110","capacity":18,"availBike":4,"address":"中山市凯茵新城碧云天东门南侧"},{"id":249,"name":"凯茵新城销售部","lat":"22.507557","lng":"113.467260","capacity":18,"availBike":7,"address":"中山市东区凯茵新城A01区正门"},{"id":250,"name":"凯茵公交车总站","lat":"22.512157","lng":"113.471744","capacity":30,"availBike":17,"address":"中山市凯茵公交车总站东北角"},{"id":251,"name":"凯茵新城雅湖居","lat":"22.514773","lng":"113.468570","capacity":20,"availBike":6,"address":"中山市凯茵新城雅湖居正门旁"},{"id":252,"name":"凯茵新城雅豪坊","lat":"22.513109","lng":"113.463504","capacity":16,"availBike":8,"address":"中山市东区凯茵新城雅豪坊公交站内"},{"id":253,"name":"眼科医院","lat":"22.533842","lng":"113.368740","capacity":20,"availBike":5,"address":"中山市西区中山路眼科医院南侧"},{"id":254,"name":"狮滘口桥","lat":"22.536062","lng":"113.367800","capacity":18,"availBike":10,"address":"中山市西区中山路东侧狮滘口大桥公交站旁"},{"id":256,"name":"新中医院东","lat":"22.544663","lng":"113.361370","capacity":20,"availBike":11,"address":"中山市西区新中医院东侧出入口旁"},{"id":257,"name":"西区中心小学","lat":"22.540620","lng":"113.356044","capacity":20,"availBike":11,"address":"中山市西区中心小学公交站旁"},{"id":259,"name":"彩虹大道中","lat":"22.549381","lng":"113.364020","capacity":30,"availBike":14,"address":"中山市彩虹大道东侧，靠公交站北侧，沿院墙布置"},{"id":260,"name":"大信新家园","lat":"22.548580","lng":"113.366820","capacity":30,"availBike":20,"address":"中山市西区翠沙路南侧公交站东侧沿花基布置"},{"id":261,"name":"星辰花园","lat":"22.570803","lng":"113.381060","capacity":30,"availBike":21,"address":"中山市星辰花园四期东门，靠公交站点附近布设"},{"id":265,"name":"创世纪汽车公司","lat":"22.552976","lng":"113.359420","capacity":30,"availBike":18,"address":"中山市彩虹大道东侧，埃索加油站，靠花基布置，公交站"},{"id":266,"name":"沙朗果蔬市场","lat":"22.557378","lng":"113.353490","capacity":30,"availBike":12,"address":"中山市明富地产，彩虹大道西侧，公交站北侧，沿路缘石"},{"id":267,"name":"西区医院","lat":"22.560323","lng":"113.350260","capacity":29,"availBike":12,"address":"中山市彩虹大道东侧，公交站南侧，沿路边布置"},{"id":268,"name":"沙朗市场","lat":"22.563491","lng":"113.347110","capacity":40,"availBike":16,"address":"中山市西区彩虹大道金港路交叉口东南角沿摩托车停放点"},{"id":269,"name":"蔷薇山庄","lat":"22.531662","lng":"113.418790","capacity":20,"availBike":5,"address":"中山市东区长江路西侧蔷薇山荘公交站"},{"id":270,"name":"职业技术学院","lat":"22.517007","lng":"113.440100","capacity":40,"availBike":12,"address":"中山市东区职业技术学院门口沿花基布置"},{"id":273,"name":"检验检疫局","lat":"22.523737","lng":"113.428240","capacity":20,"availBike":13,"address":"中山市东区中山六路检验检疫局北门东侧"},{"id":328,"name":"长江北联通","lat":"22.527420","lng":"113.423940","capacity":20,"availBike":10,"address":"中山市东区孙文东路长江路路口西南角"},{"id":330,"name":"大鳌溪新村","lat":"22.515566","lng":"113.432000","capacity":20,"availBike":9,"address":"中山市东区长江路博爱六路路口东北角"},{"id":331,"name":"蓝波湾小学","lat":"22.518153","lng":"113.363360","capacity":20,"availBike":9,"address":"中山市西区江湾路实验小学北门西侧"},{"id":332,"name":"世纪新城销售部","lat":"22.511652","lng":"113.358770","capacity":30,"availBike":12,"address":"中山市西区翠景南路东侧世纪新城售楼部北侧"},{"id":333,"name":"世纪新城","lat":"22.507566","lng":"113.358090","capacity":20,"availBike":11,"address":"中山市西区翠景南路东侧世纪新城B区出入口北侧"},{"id":334,"name":"竹秀园居委会","lat":"22.486971","lng":"113.362500","capacity":20,"availBike":8,"address":"中山市南区竹秀园居委会前面沿银潭中路布置"},{"id":361,"name":"侨中英才学校","lat":"22.494377","lng":"113.366330","capacity":30,"availBike":13,"address":"中山市南区康南路情景路路口东北角沿河涌旁布置"},{"id":362,"name":"金水湾","lat":"22.498855","lng":"113.361540","capacity":40,"availBike":12,"address":"中山市南区金水湾华业路布置于桥头沿路边布置"},{"id":364,"name":"南区办事处","lat":"22.491436","lng":"113.362420","capacity":40,"availBike":20,"address":"中山市南区日华路南区办事处南门公园东侧沿花坛布置"},{"id":379,"name":"中海翠林","lat":"22.503620","lng":"113.346866","capacity":40,"availBike":12,"address":"中山市西区中海翠林华府"},{"id":380,"name":"中信左岸","lat":"22.514503","lng":"113.355106","capacity":40,"availBike":13,"address":"中山市西区中信左岸门口西侧占5个停车位"},{"id":382,"name":"紫马岭公园南门","lat":"22.509813","lng":"113.419330","capacity":30,"availBike":19,"address":"中山市东区紫马岭公园南门靠路边布置"},{"id":384,"name":"城管局直属分局","lat":"22.526241","lng":"113.390240","capacity":20,"availBike":5,"address":"中山市石岐区城管局对面马路树间布置"},{"id":385,"name":"和景花园西门","lat":"22.506551","lng":"113.411580","capacity":30,"availBike":23,"address":"中山市东区起湾道东侧靠公交站布置"},{"id":386,"name":"翠景市场","lat":"22.532837","lng":"113.356040","capacity":30,"availBike":13,"address":"中山市翠景市场居安路、新居路交叉口西北角"},{"id":390,"name":"蔷薇山庄西门","lat":"22.531271","lng":"113.416050","capacity":30,"availBike":9,"address":"中山市东区小区西门对面树间布置"},{"id":391,"name":"远洋城美域","lat":"22.501383","lng":"113.419790","capacity":30,"availBike":23,"address":"中山市东区远洋城美域出口处"},{"id":392,"name":"远洋城别墅","lat":"22.503969","lng":"113.420770","capacity":30,"availBike":21,"address":"中山市东区远洋路远洋城别墅交叉口处"},{"id":396,"name":"六冲","lat":"22.568088","lng":"113.342750","capacity":26,"availBike":15,"address":"中山市沙朗105国道西侧六冲公交站旁"},{"id":409,"name":"安山牌坊","lat":"22.515945","lng":"113.373270","capacity":30,"availBike":10,"address":"中山市石岐区南安路安山牌坊东侧南安路北侧路边布置"},{"id":414,"name":"长江水世界","lat":"22.492783","lng":"113.452390","capacity":30,"availBike":13,"address":"中山市东区布置于景观路西侧"},{"id":416,"name":"中山市疾控中心","lat":"22.512659","lng":"113.433000","capacity":30,"availBike":10,"address":"中山市东区疾病控制中心大门北侧路边"},{"id":420,"name":"民营科技园","lat":"22.562046","lng":"113.395870","capacity":30,"availBike":18,"address":"中山市东区民科西路民营科技园"},{"id":424,"name":"蓝波湾小区东门","lat":"22.517019","lng":"113.365190","capacity":40,"availBike":28,"address":"中山市西区蓝波湾小区东门对面马路喷水池旁"},{"id":446,"name":"蓝波水岸","lat":"22.518064","lng":"113.365560","capacity":30,"availBike":15,"address":"中山市西区蓝波水岸小区门口人行道"},{"id":456,"name":"祈安苑北门","lat":"22.500618","lng":"113.374110","capacity":38,"availBike":20,"address":"中山市南区祈安苑北门对面马路沿树间布置"},{"id":457,"name":"天水湖西门","lat":"22.563314","lng":"113.402950","capacity":28,"availBike":11,"address":"中山市石岐区世宇科技南门沿路边布置"},{"id":459,"name":"南下市场","lat":"22.512895","lng":"113.386080","capacity":30,"availBike":22,"address":"中山市石岐区南下市场对面公交站旁人行道"},{"id":460,"name":"东港湾花园北门","lat":"22.562788","lng":"113.400060","capacity":30,"availBike":24,"address":"中山市石岐区东港湾花园北门对面马路人行道"},{"id":461,"name":"碧海名苑","lat":"22.560571","lng":"113.405170","capacity":30,"availBike":23,"address":"中山市石岐区江滨东路鸽皇餐厅"},{"id":462,"name":"东河北别墅区南门","lat":"22.559587","lng":"113.401260","capacity":30,"availBike":18,"address":"中山市石岐区江滨东路保安门岗东侧"},{"id":463,"name":"市公安局","lat":"22.516197","lng":"113.396915","capacity":28,"availBike":11,"address":"中山市东区市公安局公交站南侧沿人行道树间布置"},{"id":464,"name":"中环广场","lat":"22.506618","lng":"113.418140","capacity":30,"availBike":19,"address":"中山市东区兴政路新宁路路口"},{"id":465,"name":"石岐创业园","lat":"22.565570","lng":"113.405220","capacity":30,"availBike":16,"address":"中山市东区民盈东路石歧创业园"},{"id":466,"name":"中山日报印刷厂","lat":"22.555990","lng":"113.410940","capacity":34,"availBike":18,"address":"中山市东区起湾道北健羽羽毛球馆"},{"id":467,"name":"洋角口村","lat":"22.566337","lng":"113.409860","capacity":32,"availBike":17,"address":"中山市东区洋角口村村口西侧人行道"},{"id":468,"name":"祈安苑东门","lat":"22.498916","lng":"113.374560","capacity":34,"availBike":15,"address":"中山市东区"},{"id":469,"name":"中山市图书馆","lat":"22.523256","lng":"113.397490","capacity":24,"availBike":12,"address":"中山市东区"},{"id":470,"name":"龙井街兴龙街路口","lat":"22.523637","lng":"113.400935","capacity":18,"availBike":8,"address":"中山市东区"},{"id":471,"name":"江陵东路","lat":"22.540737","lng":"113.474050","capacity":30,"availBike":0,"address":""},{"id":472,"name":"环茂一路","lat":"22.542322","lng":"113.480580","capacity":20,"availBike":0,"address":""},{"id":473,"name":"康乐大道","lat":"22.552992","lng":"113.485370","capacity":30,"availBike":0,"address":""},{"id":474,"name":"火炬公交枢纽站","lat":"22.555957","lng":"113.495136","capacity":20,"availBike":9,"address":""},{"id":909,"name":"华侨高中部2","lat":"22.551883","lng":"113.399295","capacity":30,"availBike":16,"address":"中山市石岐区侨中高中部南门"},{"id":916,"name":"市一中北门","lat":"22.504549","lng":"113.411430","capacity":30,"availBike":25,"address":"中山市一中高中部北门东侧"},{"id":933,"name":"假日广场2","lat":"22.526508","lng":"113.396920","capacity":30,"availBike":17,"address":"中山市石岐区兴中道西侧假日广场人行道"},{"id":954,"name":"金钟水库驿站2","lat":"22.490770","lng":"113.397440","capacity":30,"availBike":22,"address":"中山市东区金钟水库驿站停车场内"},{"id":955,"name":"金钟水库驿站3","lat":"22.489700","lng":"113.396800","capacity":31,"availBike":11,"address":"中山市金钟水库驿站停车场内"},{"id":957,"name":"大信新都汇2","lat":"22.538995","lng":"113.389900","capacity":38,"availBike":18,"address":"中山市石岐区莲塘北路大信新都汇南门旁"},{"id":968,"name":"祈安苑东门2","lat":"22.499771","lng":"113.374520","capacity":46,"availBike":13,"address":"中山市南区"},{"id":994,"name":"朗晴假日北2","lat":"22.508411","lng":"113.381980","capacity":39,"availBike":13,"address":"中山市东区腾讯科技南门北侧沿门口花坛布置"},{"id":1001,"name":"大布工业中心","lat":"22.372226","lng":"113.452370","capacity":16,"availBike":12,"address":"三乡镇大布工业中心牌坊"},{"id":1002,"name":"富和名都","lat":"22.371935","lng":"113.454456","capacity":20,"availBike":11,"address":"三乡镇大布村委"},{"id":1003,"name":"五步e家","lat":"22.371538","lng":"113.448680","capacity":20,"availBike":11,"address":"三乡镇原绿榕居酒楼"},{"id":1004,"name":"沙坦路口西南侧","lat":"22.371420","lng":"113.449535","capacity":20,"availBike":9,"address":"三乡镇顺昌广场、文昌路、沙坦路、一寿司店门前"},{"id":1005,"name":"大布村委","lat":"22.371984","lng":"113.456920","capacity":16,"availBike":7,"address":"三乡镇大布村委刘营快餐店门前"},{"id":1006,"name":"顺昌广场南","lat":"22.367912","lng":"113.450374","capacity":12,"availBike":4,"address":"三乡镇顺昌广场邻近客家王、中国邮政、建设银行"},{"id":1007,"name":"景观一品东南侧","lat":"22.367187","lng":"113.449535","capacity":16,"availBike":8,"address":"三乡镇雅涛足浴对面"},{"id":1009,"name":"雅居乐V型牌坊","lat":"22.359125","lng":"113.445964","capacity":12,"availBike":4,"address":"三乡镇雅居乐花园、新城路"},{"id":1010,"name":"会展中心","lat":"22.365877","lng":"113.448894","capacity":12,"availBike":6,"address":"三乡镇景观大道、镇政府、古典家具会展中心"},{"id":1011,"name":"雅居乐新城璟峰","lat":"22.366945","lng":"113.453130","capacity":20,"availBike":11,"address":"三乡镇雅居乐新城璟峰邻近好莱客衣柜、雅居乐璟峯"},{"id":1012,"name":"中恒海晖园","lat":"22.369623","lng":"113.457515","capacity":20,"availBike":6,"address":"三乡镇中恒海晖园"},{"id":1013,"name":"政府西门","lat":"22.362985","lng":"113.447635","capacity":30,"availBike":10,"address":"三乡镇雅居乐车站东侧"},{"id":1014,"name":"雅湖居公交站北行","lat":"22.356643","lng":"113.446450","capacity":20,"availBike":5,"address":"三乡镇金涌大道、公交站、"},{"id":1015,"name":"理工学校","lat":"22.353222","lng":"113.450176","capacity":40,"availBike":21,"address":"三乡镇三乡子键体育馆"},{"id":1016,"name":"东城艺墅","lat":"22.352466","lng":"113.449954","capacity":22,"availBike":9,"address":"三乡镇三乡理工学校、东城艺墅、泉眼村路口"},{"id":1017,"name":"金谷供电公司","lat":"22.354808","lng":"113.442325","capacity":22,"availBike":13,"address":"三乡镇供电公司、绿茵庭、东城艺墅"},{"id":1018,"name":"新盛世路口","lat":"22.352883","lng":"113.440590","capacity":26,"availBike":12,"address":"三乡镇金谷大道与新盛世红绿灯交叉口"},{"id":1019,"name":"平东商业街路口","lat":"22.351276","lng":"113.439365","capacity":24,"availBike":6,"address":"三乡镇金谷大道与商业大街交叉口、源康堂药店门前"},{"id":1020,"name":"金谷路与岭南路交","lat":"22.348903","lng":"113.437380","capacity":14,"availBike":11,"address":"三乡镇东俊华庭、金谷大道与岭南路交叉口、"},{"id":1021,"name":"东峻华庭售楼中心","lat":"22.345569","lng":"113.434870","capacity":16,"availBike":11,"address":"三乡镇东峻华庭售楼中心邻东峻华庭、岭南路、金谷大道"},{"id":1022,"name":"英伦花园","lat":"22.365108","lng":"113.451460","capacity":22,"availBike":11,"address":"三乡镇英伦花园入口、新中心城入口"},{"id":1023,"name":"新城路与广场路口","lat":"22.363859","lng":"113.450015","capacity":14,"availBike":5,"address":"三乡镇新城路与广场路口邻近雅居乐新城、新佳乐超市"},{"id":1024,"name":"三乡载德小学","lat":"22.366914","lng":"113.434505","capacity":20,"availBike":14,"address":"三乡镇载德小学、挪河路一巷"},{"id":1025,"name":"社保局","lat":"22.366125","lng":"113.435400","capacity":28,"availBike":18,"address":"三乡镇社保局邻近川国演义"},{"id":1026,"name":"壹加壹路口西","lat":"22.362112","lng":"113.438830","capacity":16,"availBike":8,"address":"三乡镇壹加壹路口西邻近信和超市"},{"id":1027,"name":"雅居乐钟楼","lat":"22.362573","lng":"113.439740","capacity":24,"availBike":12,"address":"三乡镇雅居乐钟楼邻近长裕金行、通大百货"},{"id":1028,"name":"百乐城","lat":"22.361403","lng":"113.440814","capacity":26,"availBike":11,"address":"三乡镇百乐城、新佳乐超市"},{"id":1029,"name":"伟立厂","lat":"22.352478","lng":"113.416310","capacity":30,"availBike":18,"address":"三乡镇伟立厂"},{"id":1030,"name":"雅湖居公交站南行","lat":"22.357151","lng":"113.445470","capacity":28,"availBike":21,"address":"三乡镇雅湖居公交站（南行）"},{"id":1031,"name":"柏丽广场北","lat":"22.365644","lng":"113.443034","capacity":10,"availBike":6,"address":"三乡镇王品火锅专卖店“对面街”"},{"id":1032,"name":"宝元鞋厂南门","lat":"22.367429","lng":"113.444330","capacity":24,"availBike":12,"address":"三乡镇宝元鞋城公交站旁"},{"id":1033,"name":"平安车站","lat":"22.368421","lng":"113.445710","capacity":24,"availBike":14,"address":"三乡镇平安车站、中国电信"},{"id":1034,"name":"文化广场北门","lat":"22.365827","lng":"113.445330","capacity":20,"availBike":12,"address":"三乡镇建设路，加路仕餐厅对面"},{"id":1036,"name":"文化广场南门","lat":"22.364690","lng":"113.447154","capacity":30,"availBike":11,"address":"中山市三乡镇政府对面"},{"id":1037,"name":"华丰桥","lat":"22.361503","lng":"113.440450","capacity":24,"availBike":15,"address":"三乡镇华丰桥邻近香港雅兰"},{"id":1038,"name":"富城书店","lat":"22.359878","lng":"113.435200","capacity":16,"availBike":7,"address":"三乡镇富华书店邻近中国银行"},{"id":1039,"name":"大记酒楼","lat":"22.354301","lng":"113.426260","capacity":20,"availBike":11,"address":"三乡镇大记酒楼、公交站"},{"id":1040,"name":"皇冠花园","lat":"22.354005","lng":"113.423970","capacity":20,"availBike":12,"address":"三乡镇皇冠电脑城"},{"id":1041,"name":"第二工业区站","lat":"22.353208","lng":"113.420980","capacity":20,"availBike":7,"address":"三乡镇皇冠皮具"},{"id":1042,"name":"雅居乐中心城路口","lat":"22.350635","lng":"113.455720","capacity":26,"availBike":9,"address":"三乡镇华润万家超市"},{"id":1043,"name":"雅岗村路口","lat":"22.347208","lng":"113.455740","capacity":16,"availBike":6,"address":"三乡镇鸦岗村口草地"},{"id":1044,"name":"宝元大道北","lat":"22.373066","lng":"113.433080","capacity":14,"availBike":3,"address":"三乡镇宝元薪愿居、新伟公司"},{"id":1045,"name":"交警大队","lat":"22.351806","lng":"113.414260","capacity":16,"availBike":7,"address":"三乡镇交警大队"},{"id":1046,"name":"雍陌市场","lat":"22.371557","lng":"113.465200","capacity":24,"availBike":11,"address":"三乡镇雍陌市场、公交站"},{"id":1047,"name":"圩仔居委会公园","lat":"22.356311","lng":"113.433734","capacity":12,"availBike":6,"address":"三乡镇圩仔公园、三乡市场门诊部、圩仔居委"},{"id":1048,"name":"谷都派出所对面","lat":"22.371339","lng":"113.430120","capacity":12,"availBike":6,"address":"三乡镇小琅环路口、谷都派出所东侧"},{"id":1049,"name":"英东亭","lat":"22.371456","lng":"113.463405","capacity":16,"availBike":9,"address":"三乡镇温泉路口"},{"id":1050,"name":"三乡市场公交站","lat":"22.356708","lng":"113.430450","capacity":20,"availBike":7,"address":"三乡镇文昌西路"},{"id":1051,"name":"小琅环公园","lat":"22.365991","lng":"113.426830","capacity":40,"availBike":14,"address":"三乡镇小琅环公园摩托车停放车"},{"id":1052,"name":"雅居乐花园一期","lat":"22.360222","lng":"113.444780","capacity":20,"availBike":7,"address":"三乡镇雅居乐一期会所"},{"id":1057,"name":"城建大楼","lat":"22.362766","lng":"113.442096","capacity":16,"availBike":9,"address":"三乡镇城建大楼门前"},{"id":1058,"name":"三乡车站","lat":"22.364643","lng":"113.441810","capacity":16,"availBike":10,"address":"三乡镇文昌东路"},{"id":1059,"name":"宝元医院","lat":"22.368103","lng":"113.438846","capacity":16,"availBike":13,"address":"三乡镇宝元医院，宝元鞋厂西门"},{"id":1060,"name":"薪愿居二期","lat":"22.369880","lng":"113.436626","capacity":12,"availBike":5,"address":"三乡镇宝元大道薪愿居二期"},{"id":1061,"name":"悦景园","lat":"22.339983","lng":"113.463670","capacity":26,"availBike":10,"address":"三乡镇金涌大道南、悦景园对面"},{"id":1064,"name":"顺昌广场正门","lat":"22.369028","lng":"113.449530","capacity":24,"availBike":15,"address":"三乡镇顺昌广场治安亭岗旁"},{"id":1065,"name":"水乡居公交站","lat":"22.370918","lng":"113.474610","capacity":22,"availBike":9,"address":"三乡镇源堂医药大厦前"},{"id":1067,"name":"平东市场","lat":"22.343943","lng":"113.440040","capacity":20,"availBike":3,"address":"三乡镇平东市场内街"},{"id":1069,"name":"三乡医院","lat":"22.357628","lng":"113.428096","capacity":18,"availBike":13,"address":"三乡镇三乡医院大门左侧"},{"id":1075,"name":"阿洛奇美帝","lat":"22.379078","lng":"113.437280","capacity":20,"availBike":6,"address":"三乡镇阿洛奇美帝厂对面"},{"id":1079,"name":"雍陌村委","lat":"22.371364","lng":"113.468910","capacity":12,"availBike":3,"address":"三乡镇雍陌村委邻近中山农商银行"},{"id":1081,"name":"雍陌中心公园","lat":"22.372526","lng":"113.469585","capacity":12,"availBike":8,"address":"三乡镇雍陌社区卫生服务站旁公园内"},{"id":1082,"name":"罗三妹山公园","lat":"22.379585","lng":"113.473026","capacity":16,"availBike":4,"address":"三乡镇罗三妹公园大门左侧"},{"id":1087,"name":"塘敢社区卫生服务","lat":"22.366512","lng":"113.485620","capacity":20,"availBike":15,"address":"三乡镇塘敢社区卫生服务站门前"},{"id":1088,"name":"塘敢布匹市场","lat":"22.369800","lng":"113.497890","capacity":16,"availBike":6,"address":"三乡镇塘敢布匹市场"},{"id":1090,"name":"巨龙古玩城西门","lat":"22.359140","lng":"113.478500","capacity":20,"availBike":12,"address":"三乡镇前陇巨龙古玩城公交站旁"},{"id":1091,"name":"前陇市场","lat":"22.355453","lng":"113.478890","capacity":20,"availBike":10,"address":"三乡镇源康堂药店门前"},{"id":1093,"name":"水截头公交站","lat":"22.342291","lng":"113.481980","capacity":14,"availBike":10,"address":"三乡镇水截头牌坊"},{"id":1094,"name":"西山村委门口","lat":"22.350164","lng":"113.490150","capacity":12,"availBike":7,"address":"三乡镇西山村委公交站旁"},{"id":1095,"name":"古鹤市场","lat":"22.329413","lng":"113.481136","capacity":16,"availBike":6,"address":"三乡镇古鹤市场公交站旁"},{"id":1096,"name":"古鹤村祠堂","lat":"22.326843","lng":"113.483110","capacity":16,"availBike":12,"address":"三乡镇古鹤村老人康乐中心"},{"id":1097,"name":"华财古玩城","lat":"22.323940","lng":"113.480160","capacity":26,"availBike":3,"address":"三乡镇华财古玩城保安亭侧"},{"id":1098,"name":"新圩市场","lat":"22.329261","lng":"113.471320","capacity":20,"availBike":9,"address":"三乡镇"},{"id":1102,"name":"鸦岗小学","lat":"22.345303","lng":"113.457256","capacity":18,"availBike":8,"address":"三乡镇鸦岗小学路口草地"},{"id":1104,"name":"鸦岗市场","lat":"22.343811","lng":"113.455646","capacity":20,"availBike":7,"address":"三乡镇鸦岗卫生服务站旁"},{"id":1105,"name":"鸦岗村委公园","lat":"22.346077","lng":"113.453950","capacity":14,"availBike":5,"address":"三乡镇鸦岗村委旁"},{"id":1106,"name":"泉眼卫生服务站","lat":"22.357647","lng":"113.459514","capacity":20,"availBike":0,"address":"三乡镇泉眼村市场旁"},{"id":1107,"name":"平东商业大街南","lat":"22.340046","lng":"113.439760","capacity":18,"availBike":8,"address":"三乡镇平东乡村俱乐部对面，公交站旁"},{"id":1110,"name":"斑鸠埔村口","lat":"22.344013","lng":"113.422860","capacity":12,"availBike":3,"address":"三乡镇斑鸠埔村口105国道边"},{"id":1111,"name":"泉林路口","lat":"22.346653","lng":"113.417180","capacity":16,"availBike":6,"address":"三乡镇泉林路口105国道边"},{"id":1112,"name":"南龙市场","lat":"22.342067","lng":"113.411370","capacity":12,"availBike":8,"address":"三乡镇南龙市场公交站牌旁"},{"id":1113,"name":"泉林山庄","lat":"22.336618","lng":"113.409560","capacity":20,"availBike":4,"address":"三乡镇泉林山庄门口车棚内"},{"id":1116,"name":"南坑村口","lat":"22.341907","lng":"113.398296","capacity":10,"availBike":4,"address":"三乡镇南坑村口村口左侧"},{"id":1120,"name":"平南林堡公园","lat":"22.350293","lng":"113.430675","capacity":18,"availBike":4,"address":"三乡镇平南林堡公园"},{"id":1123,"name":"文阁塔公园","lat":"22.357774","lng":"113.436145","capacity":12,"availBike":1,"address":"三乡镇文阁塔公园内"},{"id":1124,"name":"华丰商业街","lat":"22.359726","lng":"113.439006","capacity":16,"availBike":8,"address":"三乡镇华丰商业街宝贝屋门前"},{"id":1125,"name":"桂山中学","lat":"22.356763","lng":"113.436374","capacity":16,"availBike":6,"address":"三乡镇桂山中学饭堂旁"},{"id":1126,"name":"新盛世花园","lat":"22.351036","lng":"113.441190","capacity":26,"availBike":8,"address":"三乡镇新盛世花园西门入口"},{"id":1127,"name":"平东小学","lat":"22.350528","lng":"113.441100","capacity":16,"availBike":7,"address":"三乡镇新下冲路南"},{"id":1129,"name":"桥头村南宁街","lat":"22.360832","lng":"113.430820","capacity":10,"availBike":7,"address":"三乡镇桥头村南宁街公厕"},{"id":1130,"name":"白石市场","lat":"22.356913","lng":"113.399510","capacity":20,"availBike":9,"address":"三乡镇白石市场东侧"},{"id":1135,"name":"白石社区服务中心","lat":"22.358719","lng":"113.384800","capacity":20,"availBike":7,"address":"三乡镇白石社区服务中心门前"},{"id":1137,"name":"三溪村","lat":"22.352516","lng":"113.378550","capacity":14,"availBike":10,"address":"三乡镇三溪村牌坊内"},{"id":1144,"name":"茅湾市场","lat":"22.327221","lng":"113.464500","capacity":20,"availBike":8,"address":"三乡镇金湾市场旁健身小广场"},{"id":1145,"name":"新圩105国道村口","lat":"22.331211","lng":"113.472520","capacity":16,"availBike":11,"address":"三乡镇新圩村南入口，105国道边"},{"id":1147,"name":"古鹤福群路小公园","lat":"22.330452","lng":"113.483760","capacity":20,"availBike":8,"address":"三乡镇古鹤福群路凉亭旁"},{"id":1149,"name":"乌石下园仔","lat":"22.364755","lng":"113.435260","capacity":16,"availBike":7,"address":"三乡镇乌石村下园仔大树下"},{"id":1150,"name":"壹加壹路口北","lat":"22.362791","lng":"113.438976","capacity":20,"availBike":11,"address":"三乡镇壹加壹入口对面"},{"id":1153,"name":"南龙村委","lat":"22.341135","lng":"113.409270","capacity":16,"availBike":10,"address":"三乡镇南龙村委公交站旁"},{"id":1156,"name":"吉雅花园","lat":"22.355993","lng":"113.401840","capacity":16,"availBike":8,"address":"三乡镇105国道边，吉雅花园路口"},{"id":1158,"name":"碧华牌坊","lat":"22.355264","lng":"113.391700","capacity":16,"availBike":7,"address":"三乡镇白石碧华公园牌坊旁"},{"id":1159,"name":"三合村口","lat":"22.358818","lng":"113.389480","capacity":16,"availBike":8,"address":"三乡镇白石三合村口，保安岗亭旁"},{"id":1161,"name":"三乡市场天桥下","lat":"22.357160","lng":"113.431320","capacity":28,"availBike":13,"address":"三乡镇三乡市场天桥底，新佳乐超市旁"},{"id":1166,"name":"平南村路口","lat":"22.355156","lng":"113.428935","capacity":20,"availBike":9,"address":"三乡镇平南村路口邻近中山农商银行"},{"id":1167,"name":"东城花园后门","lat":"22.352888","lng":"113.445160","capacity":14,"availBike":7,"address":"三乡镇东城花园南门，便利店门前"},{"id":1168,"name":"雅岗村路口","lat":"22.347385","lng":"113.455810","capacity":16,"availBike":13,"address":""},{"id":1169,"name":"雅居乐时兴","lat":"22.352920","lng":"113.409550","capacity":14,"availBike":11,"address":"三乡镇雅居乐时兴装饰公司门前"},{"id":1170,"name":"凯悦名门","lat":"22.343675","lng":"113.427010","capacity":20,"availBike":12,"address":"三乡镇富和.凯悦名门门前停车位"},{"id":1171,"name":"东城花园正门","lat":"22.356262","lng":"113.443260","capacity":22,"availBike":13,"address":"三乡镇东城花园北门喷水池前"},{"id":1172,"name":"白石检测站","lat":"22.353218","lng":"113.407870","capacity":16,"availBike":10,"address":"三乡镇白石摩托车检测站"},{"id":1173,"name":"西山永盛玩具厂","lat":"22.356683","lng":"113.495240","capacity":20,"availBike":9,"address":"三乡镇西山永盛玩具厂门前，西山市场旁"},{"id":1174,"name":"宝元大道北交界","lat":"22.374653","lng":"113.432445","capacity":20,"availBike":11,"address":"三乡镇宝元大道与小琅环路交界"},{"id":1175,"name":"光后小学","lat":"22.358514","lng":"113.443180","capacity":16,"availBike":11,"address":"三乡镇光后小学南门旁"},{"id":1176,"name":"雅居乐一期广场","lat":"22.361175","lng":"113.446890","capacity":18,"availBike":9,"address":"三乡镇雅居乐一期广场内"},{"id":1177,"name":"逸湖居","lat":"22.350582","lng":"113.453150","capacity":20,"availBike":6,"address":"三乡镇金涌大道旁逸湖居小区门前"},{"id":1178,"name":"新圩派出所","lat":"22.331197","lng":"113.473120","capacity":16,"availBike":5,"address":"三乡镇鹤湾派出所旁"},{"id":1179,"name":"茅湾下架工业区","lat":"22.335500","lng":"113.456935","capacity":16,"availBike":10,"address":"三乡镇茅湾第二工业区路口"},{"id":1180,"name":"新城岚晴站","lat":"22.364132","lng":"113.454290","capacity":20,"availBike":5,"address":"三乡镇雅居乐新城岚晴车站旁"},{"id":1181,"name":"庭记酒楼","lat":"22.353939","lng":"113.424540","capacity":16,"availBike":11,"address":"三乡镇文昌西路"},{"id":1182,"name":"沙伯特","lat":"22.377712","lng":"113.428820","capacity":18,"availBike":11,"address":"三乡镇沙伯特厂西门"},{"id":1183,"name":"博爱中学","lat":"22.371023","lng":"113.477590","capacity":20,"availBike":6,"address":"三乡镇博爱中学路口"},{"id":1184,"name":"外经大楼","lat":"22.363668","lng":"113.443730","capacity":16,"availBike":7,"address":"三乡镇振华路外经大楼门前"},{"id":1185,"name":"建设路东","lat":"22.368110","lng":"113.447540","capacity":16,"availBike":9,"address":"三乡镇景观一品北面商铺对面，平安车站南"},{"id":1186,"name":"富和名都南","lat":"22.369763","lng":"113.454944","capacity":20,"availBike":4,"address":"三乡镇"},{"id":1187,"name":"雍泉山庄","lat":"22.375030","lng":"113.481730","capacity":16,"availBike":7,"address":"三乡镇雍泉山庄摩托车棚内"},{"id":1188,"name":"曼秀雷敦","lat":"22.348243","lng":"113.417130","capacity":16,"availBike":11,"address":"三乡镇顺安道路运输车辆检测公司门前"},{"id":1189,"name":"三鑫中学","lat":"22.340618","lng":"113.427950","capacity":16,"availBike":8,"address":"三乡镇三鑫中学内"},{"id":1190,"name":"塘撖布匹新市场","lat":"22.370683","lng":"113.497920","capacity":16,"availBike":10,"address":"三乡镇塘敢新布匹市场斜坡旁"},{"id":1191,"name":"东安居","lat":"22.371606","lng":"113.458200","capacity":20,"availBike":8,"address":"三乡镇大布村东安居商铺前"},{"id":1192,"name":"丽景小区","lat":"22.365923","lng":"113.437730","capacity":16,"availBike":6,"address":"三乡镇丽景城市广场内"},{"id":1193,"name":"金虹云花园","lat":"22.355047","lng":"113.459730","capacity":16,"availBike":7,"address":"三乡镇金虹云花园保安亭左侧"},{"id":1194,"name":"城桂工业中心","lat":"22.378774","lng":"113.448825","capacity":20,"availBike":8,"address":"三乡镇城桂路城桂工业区中心牌坊左侧"},{"id":1195,"name":"沙岗路口","lat":"22.374033","lng":"113.449115","capacity":26,"availBike":20,"address":"三乡镇沙岗村公交站南行方向旁"},{"id":1196,"name":"麻斗站","lat":"22.360783","lng":"113.371150","capacity":16,"availBike":7,"address":""},{"id":1197,"name":"天保驾校","lat":"22.379158","lng":"113.449300","capacity":20,"availBike":10,"address":"三乡镇城桂路北行方向"},{"id":1198,"name":"东城畔山","lat":"22.387708","lng":"113.449430","capacity":20,"availBike":14,"address":""},{"id":1199,"name":"茅湾村委","lat":"22.331506","lng":"113.465660","capacity":16,"availBike":10,"address":"三乡镇茅湾村委旁凉亭"},{"id":1200,"name":"亲子乐园","lat":"22.359642","lng":"113.449660","capacity":16,"availBike":9,"address":"三乡镇振华路南雅居乐景湖居入口对面"},{"id":1201,"name":"泉眼路口","lat":"22.356147","lng":"113.453975","capacity":16,"availBike":4,"address":"三乡镇振华路南公交站旁"},{"id":1202,"name":"岭峰","lat":"22.354213","lng":"113.456294","capacity":20,"availBike":11,"address":""},{"id":1203,"name":"白石壹加壹","lat":"22.354323","lng":"113.396335","capacity":20,"availBike":10,"address":"三乡镇兴塘二路壹加壹旁"},{"id":1204,"name":"雅居乐佰利山路口","lat":"22.351415","lng":"113.458960","capacity":26,"availBike":12,"address":"三乡镇振华南路雅居乐佰利山小区入口对面"},{"id":1205,"name":"金红云花园销售部","lat":"22.352398","lng":"113.458225","capacity":18,"availBike":9,"address":"三乡镇金红云花园销售部前"},{"id":1206,"name":"雅居乐新城都会北","lat":"22.369186","lng":"113.453840","capacity":16,"availBike":8,"address":"三乡镇景观大道东行方向新城都会小区旁"},{"id":1207,"name":"新桂山中学","lat":"22.369892","lng":"113.429195","capacity":30,"availBike":20,"address":"三乡镇小琅环路桂山中学新小区门口右侧"},{"id":1302,"name":"濠东小区","lat":"22.529392","lng":"113.428730","capacity":20,"availBike":9,"address":"火炬区濠东小区入户路与孙文东路路口东侧公交站旁"},{"id":1303,"name":"濠头牌坊","lat":"22.530771","lng":"113.434760","capacity":20,"availBike":10,"address":"火炬区濠头牌坊东侧，沿孙文东路布置（黑土鸭餐厅前）"},{"id":1304,"name":"丽港城","lat":"22.533079","lng":"113.438410","capacity":20,"availBike":11,"address":"火炬区丽港城门口西侧(道路对面)，靠路边布置"},{"id":1307,"name":"窈窕","lat":"22.544029","lng":"113.463300","capacity":20,"availBike":6,"address":"火炬区布置于原窈窕牌坊旁、金盛广场前"},{"id":1308,"name":"纬创科技软件园","lat":"22.573497","lng":"113.459080","capacity":40,"availBike":22,"address":"火炬区火炬软件园公交站侧"},{"id":1309,"name":"高科技富拉司特","lat":"22.573879","lng":"113.446575","capacity":20,"availBike":9,"address":"火炬区东河路、科技西路路口东南角，沿路边布置（富拉"},{"id":1311,"name":"开发区文化广场","lat":"22.571503","lng":"113.453240","capacity":20,"availBike":8,"address":"火炬区文华工人电影城对面，靠建业西路南侧布置"},{"id":1312,"name":"置业路口","lat":"22.566761","lng":"113.451960","capacity":20,"availBike":13,"address":"火炬区伟福科技工业公司门口，火炬路北侧布置"},{"id":1313,"name":"中山港一加一","lat":"22.564373","lng":"113.468570","capacity":36,"availBike":33,"address":"火炬区中山港大道与火炬路交叉口布置（中山港壹加壹出"},{"id":1314,"name":"火炬职院实训楼","lat":"22.556643","lng":"113.464270","capacity":30,"availBike":11,"address":"火炬区国丹医院旁的建设银行门口，临近加工区牌坊布置"},{"id":1315,"name":"旺角市场","lat":"22.560964","lng":"113.471000","capacity":20,"availBike":6,"address":"火炬区板埔路、炬业路口东北角，沿炬业路东侧布置"},{"id":1316,"name":"逸港花园","lat":"22.559389","lng":"113.476730","capacity":20,"availBike":12,"address":"火炬区路口西南角、玛丽妇科旁边，沿路边布置"},{"id":1317,"name":"火炬职院","lat":"22.559452","lng":"113.467840","capacity":30,"availBike":20,"address":"火炬区布置于学校北门门口（在建校门门口）板埔路路边"},{"id":1318,"name":"火炬职院西门","lat":"22.555000","lng":"113.465790","capacity":30,"availBike":15,"address":"火炬区火炬职院西门天桥北侧"},{"id":1319,"name":"张家边电影院","lat":"22.551977","lng":"113.468470","capacity":30,"availBike":17,"address":"火炬区张家边电影院门口左侧（开发区文化中心正门）"},{"id":1320,"name":"张家边一幼","lat":"22.549093","lng":"113.475170","capacity":20,"availBike":11,"address":"火炬区东镇大道南侧，小童心店铺（逸仙路、东镇大道交"},{"id":1321,"name":"张家边市场","lat":"22.546795","lng":"113.470940","capacity":30,"availBike":20,"address":"火炬区张家边市场东侧，康祥路边（金汇广场侧）"},{"id":1322,"name":"开发区医院","lat":"22.542165","lng":"113.466370","capacity":30,"availBike":19,"address":"火炬区皇爵商业城门口，沿路明珠路南侧布置"},{"id":1323,"name":"皇爵酒店","lat":"22.540800","lng":"113.466716","capacity":20,"availBike":11,"address":"火炬区颐岭路、云翔路路口西北角"},{"id":1324,"name":"江尾头市场","lat":"22.543954","lng":"113.477490","capacity":16,"availBike":7,"address":"火炬区中智药店门口，康怡路路边"},{"id":1325,"name":"东利","lat":"22.571674","lng":"113.534990","capacity":30,"availBike":11,"address":"火炬区沿江路、联民路路口东侧，布置于沿江路路边"},{"id":1326,"name":"华佗山公园","lat":"22.545853","lng":"113.487796","capacity":30,"availBike":13,"address":"火炬区华佗山公园大门口"},{"id":1328,"name":"行政服务中心","lat":"22.564500","lng":"113.486240","capacity":30,"availBike":16,"address":"火炬区会展南楼南侧沿人行道布置"},{"id":1329,"name":"火炬区管委会","lat":"22.565343","lng":"113.482180","capacity":20,"availBike":9,"address":"火炬区区管委会前广场西南角沿人行道布置"},{"id":1330,"name":"开发区建委","lat":"22.571277","lng":"113.484930","capacity":26,"availBike":14,"address":"火炬区建委对面，沿康乐大道西侧布置（临宣传办的T牌"},{"id":1331,"name":"中山港客运码头","lat":"22.574953","lng":"113.485200","capacity":20,"availBike":11,"address":"火炬区客运码头进出口之间，沿花基布置（临码头进车口"},{"id":1332,"name":"加州阳光","lat":"22.567523","lng":"113.492046","capacity":20,"availBike":9,"address":"火炬区会展东路、港义路路口西北角，沿路边布置"},{"id":1333,"name":"群英华庭","lat":"22.562332","lng":"113.493360","capacity":20,"availBike":11,"address":"火炬区世纪大道、港义路路口东北角，沿路边布置"},{"id":1334,"name":"外语学校","lat":"22.557928","lng":"113.501090","capacity":20,"availBike":11,"address":"火炬区学校东侧，沿东阳南路路边布置"},{"id":1335,"name":"数贸大厦","lat":"22.564697","lng":"113.497480","capacity":20,"availBike":9,"address":"火炬区祥兴路、德能路口西北角，沿路边布置"},{"id":1336,"name":"玉泉酒店","lat":"22.572453","lng":"113.501506","capacity":20,"availBike":10,"address":"火炬区布置于广裕商业广场门口（玉泉酒店对面）"},{"id":1337,"name":"二洲","lat":"22.570003","lng":"113.507570","capacity":20,"availBike":9,"address":"火炬区布置于祥丰电子公司前、玉泉路西侧"},{"id":1338,"name":"健康基地","lat":"22.571922","lng":"113.520600","capacity":30,"availBike":0,"address":"火炬区布置于1路车总站旁，沿路边布置"},{"id":1339,"name":"健康路中","lat":"22.566700","lng":"113.529710","capacity":20,"availBike":9,"address":"火炬区奥德美门前，沿建九州大道布置"},{"id":1341,"name":"城东客运站","lat":"22.566553","lng":"113.471576","capacity":30,"availBike":12,"address":"火炬区城东客运站北侧靠逸仙路，沿路边布置"},{"id":1342,"name":"得能湖西门","lat":"22.562919","lng":"113.484890","capacity":20,"availBike":9,"address":"火炬区布置于得能湖西门北侧"},{"id":1343,"name":"尚城","lat":"22.534080","lng":"113.436910","capacity":20,"availBike":7,"address":"火炬区濠东路上，布置于尚城出入口对面路边"},{"id":1344,"name":"璟湖城","lat":"22.520439","lng":"113.453000","capacity":20,"availBike":0,"address":"火炬区布置于博爱路北侧（麦当劳餐厅门口）"},{"id":1346,"name":"临海工业园宿舍区","lat":"22.562935","lng":"113.604420","capacity":30,"availBike":2,"address":"火炬区金晖苑宿舍区门前公交站旁"},{"id":1347,"name":"临海中船基地","lat":"22.550054","lng":"113.619160","capacity":30,"availBike":21,"address":"火炬区中船基地领航苑公交站旁（广船国际）"},{"id":1348,"name":"临海广新海工","lat":"22.567978","lng":"113.621555","capacity":30,"availBike":20,"address":"火炬区广新海工公交站旁"},{"id":1349,"name":"临海马安村路口","lat":"22.577797","lng":"113.589810","capacity":20,"availBike":10,"address":"火炬区555宿舍对面沿路基铺设"},{"id":1350,"name":"临海纬创科技园","lat":"22.568365","lng":"113.596546","capacity":30,"availBike":9,"address":"火炬区纬创科技园6号门前，公交站前沿路基铺设"},{"id":1351,"name":"临海体育休闲广场","lat":"22.576093","lng":"113.592204","capacity":30,"availBike":8,"address":"火炬区体育广场附近"},{"id":1352,"name":"健康路南","lat":"22.563926","lng":"113.527410","capacity":20,"availBike":10,"address":"火炬区美捷时门口、沿健康路东侧布置"},{"id":1353,"name":"新佳能","lat":"22.555723","lng":"113.529960","capacity":30,"availBike":11,"address":"火炬区佳能生活区出口左侧"},{"id":1355,"name":"陵岗村","lat":"22.533863","lng":"113.445350","capacity":20,"availBike":10,"address":"火炬区沿路中山路布置"},{"id":1356,"name":"六和社区居委会","lat":"22.538282","lng":"113.465015","capacity":20,"availBike":9,"address":"火炬区沿中山路北侧布置"},{"id":1357,"name":"中山路赐福山庄","lat":"22.535877","lng":"113.406420","capacity":30,"availBike":16,"address":"火炬区沿中山路北侧布置"},{"id":1358,"name":"江尾头","lat":"22.535877","lng":"113.406420","capacity":20,"availBike":8,"address":"火炬区沿环茂公路路段布置"},{"id":1359,"name":"健康花城","lat":"22.535877","lng":"113.406420","capacity":30,"availBike":18,"address":"火炬区健康花城门口，康乐大道东侧路边布置"},{"id":1360,"name":"火炬区太阳城","lat":"22.555957","lng":"133.495150","capacity":50,"availBike":25,"address":"火炬区太阳城南侧，沿东镇大道北侧布置"},{"id":1361,"name":"明阳临海叶片厂","lat":"22.562618","lng":"113.622420","capacity":20,"availBike":10,"address":"火炬区"},{"id":1362,"name":"临海中机建设","lat":"22.581798","lng":"113.583576","capacity":30,"availBike":13,"address":"火炬区"},{"id":1363,"name":"临海兆鸿模具","lat":"22.555683","lng":"113.610996","capacity":30,"availBike":12,"address":""},{"id":1364,"name":"卡西欧电子厂","lat":"22.573883","lng":"113.436090","capacity":20,"availBike":9,"address":"火炬区科技西路电子厂南门东侧路边布置"},{"id":1365,"name":"火炬益华百货","lat":"22.558527","lng":"113.494740","capacity":50,"availBike":27,"address":"火炬区火炬益华百货"},{"id":1366,"name":"德仲广场","lat":"22.567949","lng":"113.486700","capacity":16,"availBike":8,"address":"火炬区德仲广场"},{"id":1367,"name":"佰汇广场","lat":"22.565506","lng":"113.463420","capacity":30,"availBike":17,"address":"火炬区佰汇广场"},{"id":1368,"name":"铂爵山","lat":"22.550417","lng":"113.464206","capacity":24,"availBike":13,"address":"火炬区铂爵山"},{"id":1601,"name":"港口镇政府","lat":"22.590942","lng":"113.390800","capacity":16,"availBike":3,"address":"港口镇兴港路港口镇政府对面公交站"},{"id":1602,"name":"港口壹加壹","lat":"22.586345","lng":"113.389280","capacity":16,"availBike":9,"address":"港口镇壹加壹超市门前"},{"id":1603,"name":"美景市场","lat":"22.579509","lng":"113.394210","capacity":16,"availBike":11,"address":"港口镇美景西路海逸酒店旁"},{"id":1604,"name":"美景康城","lat":"22.580053","lng":"113.397624","capacity":16,"availBike":11,"address":"港口镇美景东路美景花园小区"},{"id":1901,"name":"南头公园","lat":"22.722395","lng":"113.299304","capacity":40,"availBike":23,"address":"南头镇南头公园东北角、中国电信南头分公司前的人行道"},{"id":1902,"name":"水上公园","lat":"22.709634","lng":"113.295360","capacity":40,"availBike":21,"address":"南头镇新修建的光明南路末端与水上公园围堤交界路口"},{"id":1903,"name":"广济医院","lat":"22.716884","lng":"113.298760","capacity":40,"availBike":23,"address":"南头镇广济医院正门右侧人行道"},{"id":1904,"name":"穗西社区","lat":"22.703293","lng":"113.307280","capacity":40,"availBike":22,"address":"南头镇中山市怡品电器有限公司门口人行道上"},{"id":1905,"name":"锦绣东方","lat":"22.713260","lng":"113.325160","capacity":30,"availBike":18,"address":"南头镇东福南路锦绣东方公交站人行道旁"},{"id":1906,"name":"南头轻轨站","lat":"22.718851","lng":"113.315110","capacity":40,"availBike":24,"address":"南头镇南头城轨站下，黄圃方向南三公路旁"},{"id":1907,"name":"将军市场","lat":"22.719068","lng":"113.325060","capacity":40,"availBike":25,"address":"南头镇东福北路将军市场公交站台旁，农商银行前"},{"id":1908,"name":"民安市场","lat":"22.737796","lng":"113.295300","capacity":30,"availBike":17,"address":"南头镇民安小学门前河涌旁人行道上"},{"id":2001,"name":"灯都会展中心","lat":"22.615858","lng":"113.220455","capacity":40,"availBike":24,"address":"古镇东兴东路与东岸中路交叉路口处，绿岛树池间"},{"id":2002,"name":"乐加福","lat":"22.615242","lng":"113.224376","capacity":30,"availBike":16,"address":"古镇同福南路与和平路交叉路口处，乐加福靠路边树池间"},{"id":2003,"name":"欧普照明","lat":"22.660467","lng":"113.206060","capacity":30,"availBike":19,"address":"古镇欧普照明站背后草地"},{"id":2004,"name":"古镇灯饰大厦","lat":"22.620195","lng":"113.198380","capacity":30,"availBike":18,"address":"古镇灯饰大厦门口东侧"},{"id":2005,"name":"古镇大信新都汇南","lat":"22.645090","lng":"113.212730","capacity":40,"availBike":22,"address":"古镇大信新都汇南门"},{"id":2006,"name":"天宏物流","lat":"22.641117","lng":"113.201630","capacity":26,"availBike":13,"address":"古镇正联电脑前停车位处"},{"id":2007,"name":"海洲健身广场1","lat":"22.665041","lng":"113.188840","capacity":18,"availBike":10,"address":"古镇中兴大道北与东岸西路交叉口西北侧，海洲健身广场"},{"id":2008,"name":"飞利浦照明","lat":"22.613323","lng":"113.211150","capacity":20,"availBike":8,"address":"古镇同兴路路口处，公交上落点北侧"},{"id":2009,"name":"东岸路口","lat":"22.644140","lng":"113.212770","capacity":22,"availBike":11,"address":"古镇杨发灯饰前，东岸路口站牌旁"},{"id":2010,"name":"交通银行","lat":"22.632105","lng":"113.197086","capacity":16,"availBike":9,"address":"古镇交通银行前"},{"id":2011,"name":"乐丰花园","lat":"22.624021","lng":"113.196285","capacity":30,"availBike":17,"address":"古镇中兴大道中与浦兴路交叉路口处，南威灯饰前靠马路"},{"id":2012,"name":"四海百货1","lat":"22.617567","lng":"113.195895","capacity":40,"availBike":25,"address":"古镇四海百货公交站旁"},{"id":2013,"name":"照明灯饰采购中心","lat":"22.611705","lng":"113.195100","capacity":24,"availBike":15,"address":"古镇国际照明采购中心前保安亭旁"},{"id":2014,"name":"古镇镇政府","lat":"22.618158","lng":"113.198490","capacity":40,"availBike":22,"address":"古镇镇政府门口西侧"},{"id":2015,"name":"兴业银行","lat":"22.617403","lng":"113.201460","capacity":28,"availBike":22,"address":"古镇东兴东路与华廷路交叉路口拐弯，兴业与农业银行前"},{"id":2016,"name":"冈东","lat":"22.614715","lng":"113.191510","capacity":18,"availBike":11,"address":"古镇冈东站牌旁，世纪灯饰广场前"},{"id":2017,"name":"古镇医院","lat":"22.619493","lng":"113.193460","capacity":36,"availBike":24,"address":"古镇古镇医院正门西侧树池之间"},{"id":2018,"name":"古镇文化公园","lat":"22.620510","lng":"113.190710","capacity":40,"availBike":21,"address":"古镇古镇文化公园门口东侧"},{"id":2020,"name":"古镇车站","lat":"22.631387","lng":"113.194250","capacity":24,"availBike":14,"address":"古镇古镇车站前"},{"id":2021,"name":"聚群购物广场","lat":"22.635616","lng":"113.195060","capacity":34,"availBike":13,"address":"古镇新兴商业广场生活区旁小河边树池间"},{"id":2022,"name":"江南海岸家园","lat":"22.608413","lng":"113.181964","capacity":40,"availBike":21,"address":"古镇江南海岸家园小区益华乐家超级商场靠近小区侧"},{"id":2023,"name":"鹏泰购物广场","lat":"22.623821","lng":"113.185390","capacity":28,"availBike":0,"address":"古镇鹏泰购物广场前"},{"id":2024,"name":"灯都灯饰配件","lat":"22.606923","lng":"113.198450","capacity":18,"availBike":10,"address":"古镇美宜佳前停车位"},{"id":2025,"name":"江边公园","lat":"22.605098","lng":"113.181800","capacity":26,"availBike":11,"address":"古镇江边公园路侧树池间"},{"id":2026,"name":"利美购物广场","lat":"22.605440","lng":"113.191844","capacity":20,"availBike":9,"address":"古镇文兴大道、荣丰街与中兴大道中交叉口"},{"id":2027,"name":"冈南新城批发市场","lat":"22.606543","lng":"113.184940","capacity":26,"availBike":15,"address":"古镇魅力动漫城靠马路边树池之间"},{"id":2028,"name":"冈南老人院","lat":"22.612711","lng":"113.183610","capacity":22,"availBike":12,"address":"古镇老人院门前公园侧"},{"id":2029,"name":"六坊村委","lat":"22.616808","lng":"113.181705","capacity":20,"availBike":10,"address":"古镇南兴路与鸿福二路交界，小桥东侧"},{"id":2030,"name":"古四村委会","lat":"22.621227","lng":"113.183360","capacity":20,"availBike":7,"address":"古镇古四村委会和古四社区服务站对面"},{"id":2031,"name":"古三壹加壹","lat":"22.624164","lng":"113.182160","capacity":40,"availBike":21,"address":"古镇公交站保安亭旁"},{"id":2032,"name":"冈东村委","lat":"22.615118","lng":"113.189150","capacity":20,"availBike":9,"address":"古镇七坊九巷与西洲围大街交界小公园对面树池间"},{"id":2033,"name":"古三社区服务站","lat":"22.626030","lng":"113.181320","capacity":16,"availBike":9,"address":"古镇古三村综治信访维稳工作站与古三社区服务站之间"},{"id":2034,"name":"古三小公园","lat":"22.626812","lng":"113.180720","capacity":28,"availBike":13,"address":"古镇古三经济开发区北苑路与南苑路交界处的小公园"},{"id":2036,"name":"古二村委会","lat":"22.631483","lng":"113.188460","capacity":16,"availBike":10,"address":"古镇古二村民委员会附近的小公园处"},{"id":2037,"name":"曹一公园1","lat":"22.635533","lng":"113.200920","capacity":40,"availBike":0,"address":"古镇曹一大道与新丰中路交叉口，曹一公园旁"},{"id":2038,"name":"曹步派出所","lat":"22.638158","lng":"113.212800","capacity":32,"availBike":19,"address":"古镇长安路与文兴路交界，曹步派出所一侧"},{"id":2039,"name":"曹三村委会","lat":"22.629516","lng":"113.209230","capacity":12,"availBike":5,"address":"古镇曹三村委会宣传栏处"},{"id":2040,"name":"明珠家园","lat":"22.614153","lng":"113.193126","capacity":30,"availBike":16,"address":"古镇明珠家园旁的篮球场处"},{"id":2041,"name":"南方绿博园","lat":"22.656898","lng":"113.199910","capacity":26,"availBike":14,"address":"古镇南方绿化苗木博览会对面的广场侧"},{"id":2042,"name":"古镇高级中学","lat":"22.660450","lng":"113.179560","capacity":50,"availBike":23,"address":"古镇中山市古镇高级中学门口侧"},{"id":2043,"name":"海洲初级中学","lat":"22.664180","lng":"113.183246","capacity":30,"availBike":16,"address":"古镇中山市海洲初级中学门口侧"},{"id":2044,"name":"海洲市场","lat":"22.668361","lng":"113.189410","capacity":18,"availBike":10,"address":"古镇爱悦堡前，路灯之间"},{"id":2045,"name":"世纪信佳","lat":"22.669138","lng":"113.190975","capacity":20,"availBike":10,"address":"华昌路与华昌西路三路交叉口，中国邮政前"},{"id":2046,"name":"海洲文化活动中心","lat":"22.670833","lng":"113.189400","capacity":16,"availBike":8,"address":"古镇海州文化活动中心公交站牌旁"},{"id":2047,"name":"海洲医院","lat":"22.672926","lng":"113.184840","capacity":20,"availBike":5,"address":"古镇海州医院公交站牌旁"},{"id":2048,"name":"曹三小学","lat":"22.622995","lng":"113.211700","capacity":30,"availBike":18,"address":"古镇曹三小学与同兴路路口西侧"},{"id":2049,"name":"曹二农贸市场","lat":"22.637960","lng":"113.218170","capacity":30,"availBike":18,"address":"古镇曹兴东路与东岸南路交叉口，美宜佳隔马路对面"},{"id":2050,"name":"城轨古镇站","lat":"22.608961","lng":"113.225030","capacity":34,"availBike":18,"address":"古镇镇"},{"id":2207,"name":"海洲健身广场2","lat":"22.615858","lng":"113.220455","capacity":42,"availBike":27,"address":"古镇中兴大道北与东岸西路交叉口西北侧"},{"id":2212,"name":"四海百货2","lat":"22.615858","lng":"113.220455","capacity":40,"availBike":21,"address":"古镇公交站旁"},{"id":2237,"name":"曹一公园2","lat":"22.635533","lng":"113.201724","capacity":20,"availBike":0,"address":"古镇曹一大道与新丰中路交叉口，曹一公园旁"},{"id":2907,"name":"海洲健身广场2","lat":"22.665041","lng":"113.188240","capacity":42,"availBike":2,"address":""},{"id":2912,"name":"四海百货2","lat":"22.617166","lng":"113.196560","capacity":40,"availBike":3,"address":""},{"id":2937,"name":"曹一公园2","lat":"22.615858","lng":"113.220455","capacity":20,"availBike":12,"address":""},{"id":2950,"name":"城轨古镇站2","lat":"22.608961","lng":"113.226030","capacity":34,"availBike":10,"address":""},{"id":8001,"name":"坦洲医院","lat":"22.277103","lng":"113.470455","capacity":40,"availBike":11,"address":"坦洲镇德秀路医院门口巴士站旁边"},{"id":8002,"name":"汇乔花园","lat":"22.278230","lng":"113.469684","capacity":36,"availBike":15,"address":"坦洲镇德秀路汇乔花园小区南面"},{"id":8003,"name":"市民广场南","lat":"22.279817","lng":"113.468740","capacity":30,"availBike":10,"address":"坦洲镇德秀路水木清晖园小区门口对面"},{"id":8004,"name":"实验中学","lat":"22.280294","lng":"113.467200","capacity":40,"availBike":13,"address":"坦洲镇青晖北路实验中学门口左侧"},{"id":8005,"name":"青少年活动中心","lat":"22.281685","lng":"113.469340","capacity":28,"availBike":10,"address":"坦洲镇青晖北路皇爵广场对面"},{"id":8006,"name":"市民广场北","lat":"22.280969","lng":"113.470840","capacity":28,"availBike":8,"address":"坦洲镇坦神北路南侧金斗湾客运站附近"},{"id":8007,"name":"皇爵广场","lat":"22.283193","lng":"113.469130","capacity":30,"availBike":15,"address":"坦洲镇坦神北路邮政银行旁"},{"id":8008,"name":"坦洲公安分局","lat":"22.283710","lng":"113.469770","capacity":28,"availBike":9,"address":"坦洲镇坦神北路公安局门口右侧"},{"id":8009,"name":"锦绣商业中心","lat":"22.285736","lng":"113.468050","capacity":28,"availBike":9,"address":"坦洲镇坦神北路与环洲路交汇十字路口"},{"id":8010,"name":"星洲花园","lat":"22.285020","lng":"113.470630","capacity":30,"availBike":9,"address":"坦洲镇乐怡路世华地产门口巴士站旁"},{"id":8011,"name":"锦绣阳光","lat":"22.284385","lng":"113.472130","capacity":30,"availBike":9,"address":"坦洲镇乐怡路锦绣阳光小区大门左侧"},{"id":8012,"name":"锦绣车站","lat":"22.282320","lng":"113.473510","capacity":22,"availBike":9,"address":"坦洲镇乐怡路锦绣阳光1期巴士站旁"},{"id":8013,"name":"七村大友市场","lat":"22.280851","lng":"113.474796","capacity":26,"availBike":10,"address":"坦洲镇文华路大友市场斜对面"},{"id":8014,"name":"坦洲行政服务中心","lat":"22.280136","lng":"113.472170","capacity":30,"availBike":18,"address":"坦洲镇坦神北路行政中心大楼门口左侧"},{"id":8015,"name":"坦洲交警支队","lat":"22.277753","lng":"113.474150","capacity":20,"availBike":8,"address":"坦洲镇坦神北路交警大楼门口右侧一知万酒楼对面"},{"id":8016,"name":"一知万","lat":"22.276641","lng":"113.473674","capacity":26,"availBike":7,"address":"坦洲镇德溪路一知万酒楼正门右侧"},{"id":8017,"name":"公安(教工)宿舍","lat":"22.273185","lng":"113.471400","capacity":30,"availBike":10,"address":"坦洲镇景民路教工楼后面"},{"id":8018,"name":"祥圣华苑","lat":"22.273346","lng":"113.469980","capacity":30,"availBike":16,"address":"坦洲镇德溪路农商银行门口巴士站旁"},{"id":8019,"name":"坦洲理工学校","lat":"22.271358","lng":"113.466040","capacity":40,"availBike":11,"address":"坦洲镇德溪路理工学校正门左侧"},{"id":8020,"name":"坦洲新中学","lat":"22.267189","lng":"113.456980","capacity":40,"availBike":8,"address":"坦洲镇联中路新中学南门右侧"},{"id":8021,"name":"坦洲山公园","lat":"22.267389","lng":"113.467880","capacity":18,"availBike":9,"address":"坦洲镇联兴路公园门前"},{"id":8022,"name":"坦洲旧桥","lat":"22.267944","lng":"113.471010","capacity":30,"availBike":7,"address":"坦洲镇坦洲涌仔桥河边宝珠酒店对面"},{"id":8023,"name":"坦洲旧市场","lat":"22.265361","lng":"113.469470","capacity":42,"availBike":17,"address":"坦洲镇南洲路河边市场门口对面"},{"id":8024,"name":"宏景园","lat":"22.261709","lng":"113.471614","capacity":22,"availBike":10,"address":"坦洲镇大兴路合胜幼儿园门口"},{"id":8025,"name":"合胜村社区","lat":"22.259485","lng":"113.471060","capacity":20,"availBike":8,"address":"坦洲镇永康路与工业大道交汇处"},{"id":8026,"name":"坦洲镇人民政府","lat":"22.260990","lng":"113.473960","capacity":30,"availBike":9,"address":"坦洲镇工业大道镇政府门口右侧"},{"id":8027,"name":"怡乐园","lat":"22.257457","lng":"113.475696","capacity":30,"availBike":12,"address":"坦洲镇大兴路与嘉联路交汇处，芳邻雅居小区门口"},{"id":8028,"name":"壹加壹(联邦制药)","lat":"22.258609","lng":"113.477970","capacity":30,"availBike":13,"address":"坦洲镇嘉联路一加一门口右侧"},{"id":8029,"name":"工业大道中","lat":"22.263101","lng":"113.476510","capacity":32,"availBike":11,"address":"坦洲镇工业大道中，中国移动营业厅附近"},{"id":8030,"name":"建设银行(汇昌)","lat":"22.267034","lng":"113.482135","capacity":40,"availBike":19,"address":"坦洲镇坦神北路与南坦路红绿灯口"},{"id":8031,"name":"坦洲中心市场","lat":"22.272413","lng":"113.478270","capacity":32,"availBike":10,"address":"坦洲镇坦神北路中心市场旁边"},{"id":8032,"name":"合胜百货","lat":"22.270286","lng":"113.480160","capacity":36,"availBike":14,"address":"坦洲镇坦神北路合胜百货门口巴士站旁"},{"id":8033,"name":"壹加壹(坦神路)","lat":"22.270803","lng":"113.479130","capacity":40,"availBike":17,"address":"坦洲镇坦神北路58号一加一门口"},{"id":8034,"name":"杰士美广场","lat":"22.271379","lng":"113.477900","capacity":30,"availBike":9,"address":"坦洲镇杰士美文化体育中心南侧"},{"id":8035,"name":"民康路中","lat":"22.268261","lng":"113.475070","capacity":28,"availBike":12,"address":"坦洲镇坦洲民康路中建设银行附近"},{"id":8036,"name":"国际花城","lat":"22.281898","lng":"113.463600","capacity":30,"availBike":14,"address":"坦洲镇环洲北路9号国际花城售楼部门口"},{"id":8037,"name":"豪日酒店","lat":"22.268619","lng":"113.481620","capacity":30,"availBike":6,"address":"坦洲镇坦神北路与振兴中路的文汇处"},{"id":8038,"name":"世纪银星商业广场","lat":"22.267925","lng":"113.484230","capacity":40,"availBike":0,"address":"坦洲镇南坦路汇昌酒店巴士站旁边"},{"id":8039,"name":"中澳景湖居","lat":"22.268121","lng":"113.490760","capacity":28,"availBike":12,"address":"坦洲镇界师南路农业银行门口"},{"id":8040,"name":"汇翠山庄","lat":"22.268539","lng":"113.491100","capacity":32,"availBike":13,"address":"坦洲镇界师南路汇翠山庄南门右侧"},{"id":8041,"name":"神州华府","lat":"22.271877","lng":"113.487796","capacity":20,"availBike":7,"address":"坦洲镇界狮路北与振兴路交汇处"},{"id":8042,"name":"电信坦洲营业厅","lat":"22.270943","lng":"113.489190","capacity":30,"availBike":12,"address":"坦洲镇南坦路与界狮路北路口交汇处"},{"id":8043,"name":"七星奥林园","lat":"22.274873","lng":"113.486230","capacity":30,"availBike":12,"address":"坦洲镇界狮路北小区花园门口"},{"id":8044,"name":"七村市场","lat":"22.273941","lng":"113.491530","capacity":20,"availBike":9,"address":"坦洲镇永兴路市场门口"},{"id":8045,"name":"七村社区","lat":"22.274238","lng":"113.494920","capacity":30,"availBike":13,"address":"坦洲镇南坦路七村十字路口"},{"id":8046,"name":"欣锠鞋厂","lat":"22.271141","lng":"113.482880","capacity":28,"availBike":6,"address":"坦洲镇进华路欣錩鞋厂侧门附近"},{"id":8047,"name":"曙光路中","lat":"22.265321","lng":"113.476054","capacity":30,"availBike":10,"address":"坦洲镇曙光路中龙茵幼儿园旁边"},{"id":8048,"name":"安阜市场","lat":"22.258094","lng":"133.482230","capacity":30,"availBike":0,"address":"坦洲镇安阜市场该站点搬迁至碧涛花园"},{"id":8049,"name":"坦洲富城书店","lat":"22.267049","lng":"113.473420","capacity":18,"availBike":6,"address":"坦洲镇金斗大街富城书店门口"},{"id":8050,"name":"坦洲联一小学","lat":"22.268261","lng":"113.461574","capacity":32,"availBike":11,"address":"坦洲镇德溪路联一小学巴士站旁"}]