[{
        "id": 75,
        "name": "益华百货",
        "capacity": 20,
        "availBike": 17,
        "address": "广东省梅州市平远县Y264",
        "lat": "24.903774",
        "lng": "115.965830"
    }, {
        "id": 71,
        "name": "康乐大街南",
        "capacity": 20,
        "availBike": 4,
        "address": "福建省龙岩市武平县S205",
        "lat": "24.973501",
        "lng": "116.039420"
    }, {
        "id": 414,
        "name": "长江水世界",
        "capacity": 30,
        "availBike": 15,
        "address": "广东省惠州市博罗县X216(龙岗大道)",
        "lat": "23.144930",
        "lng": "114.155440"
    }, {
        "id": 1116,
        "name": "南坑村口",
        "capacity": 10,
        "availBike": 5,
        "address": "广东省中山市中山市市辖区",
        "lat": "22.455584",
        "lng": "113.520846"
    }, {
        "id": 8042,
        "name": "电信坦洲营业厅",
        "capacity": 30,
        "availBike": 7,
        "address": "广东省惠州市惠城区S357(仲恺八路)",
        "lat": "22.988903",
        "lng": "114.263190"
    }, {
        "id": 254,
        "name": "狮滘口桥",
        "capacity": 18,
        "availBike": 7,
        "address": "福建省三明市永安市",
        "lat": "25.910474",
        "lng": "117.005600"
    }, {
        "id": 1336,
        "name": "玉泉酒店",
        "capacity": 20,
        "availBike": 7,
        "address": "广东省梅州市兴宁市Y104",
        "lat": "24.487013",
        "lng": "115.565506"
    }, {
        "id": 119,
        "name": "富逸装饰广场",
        "capacity": 32,
        "availBike": 16,
        "address": "福建省龙岩市武平县",
        "lat": "25.130752",
        "lng": "116.167490"
    }, {
        "id": 159,
        "name": "中山一桥北",
        "capacity": 20,
        "availBike": 14,
        "address": "福建省龙岩市武平县",
        "lat": "24.970246",
        "lng": "116.005920"
    }, {
        "id": 140,
        "name": "帝璟东方",
        "capacity": 30,
        "availBike": 17,
        "address": "福建省龙岩市武平县",
        "lat": "24.963834",
        "lng": "116.065890"
    }, {
        "id": 460,
        "name": "东港湾花园北门",
        "capacity": 30,
        "availBike": 25,
        "address": "广东省惠州市博罗县",
        "lat": "23.579898",
        "lng": "114.496560"
    }, {
        "id": 1033,
        "name": "平安车站",
        "capacity": 24,
        "availBike": 21,
        "address": "广东省深圳市宝安区金安路",
        "lat": "22.787231",
        "lng": "113.897210"
    }, {
        "id": 1172,
        "name": "白石检测站",
        "capacity": 16,
        "availBike": 8,
        "address": "广东省广州市南沙区",
        "lat": "22.622453",
        "lng": "113.698120"
    }, {
        "id": 8025,
        "name": "合胜村社区",
        "capacity": 20,
        "availBike": 9,
        "address": "广东省东莞市东莞市市辖区",
        "lat": "22.941547",
        "lng": "114.206360"
    }, {
        "id": 77,
        "name": "国元证券",
        "capacity": 20,
        "availBike": 11,
        "address": "广东省惠州市博罗县Y48",
        "lat": "23.245209",
        "lng": "114.176414"
    }, {
        "id": 1906,
        "name": "南头轻轨站",
        "capacity": 40,
        "availBike": 21,
        "address": "江西省赣州市寻乌县",
        "lat": "24.753071",
        "lng": "115.508110"
    }, {
        "id": 8032,
        "name": "合胜百货",
        "capacity": 36,
        "availBike": 11,
        "address": "广东省深圳市宝安区",
        "lat": "22.527555",
        "lng": "113.757510"
    }, {
        "id": 8015,
        "name": "坦洲交警支队",
        "capacity": 20,
        "availBike": 8,
        "address": "广东省珠海市香洲区金凤路",
        "lat": "22.343566",
        "lng": "113.545100"
    }, {
        "id": 204,
        "name": "碧堤湾畔",
        "capacity": 20,
        "availBike": 5,
        "address": "广东省河源市龙川县",
        "lat": "24.114847",
        "lng": "115.098130"
    }, {
        "id": 8029,
        "name": "工业大道中",
        "capacity": 32,
        "availBike": 13,
        "address": "福建省龙岩市上杭县",
        "lat": "24.961434",
        "lng": "116.385460"
    }, {
        "id": 92,
        "name": "亭子下大街天桥",
        "capacity": 20,
        "availBike": 5,
        "address": "福建省龙岩市上杭县X636",
        "lat": "25.403356",
        "lng": "116.487980"
    }, {
        "id": 1017,
        "name": "金谷供电公司",
        "capacity": 22,
        "availBike": 13,
        "address": "广东省惠州市博罗县",
        "lat": "23.515510",
        "lng": "114.693625"
    }, {
        "id": 333,
        "name": "世纪新城",
        "capacity": 20,
        "availBike": 8,
        "address": "福建省龙岩市上杭县",
        "lat": "25.241797",
        "lng": "116.305740"
    }, {
        "id": 8020,
        "name": "坦洲新中学",
        "capacity": 40,
        "availBike": 9,
        "address": "福建省龙岩市连城县",
        "lat": "25.533907",
        "lng": "116.978680"
    }, {
        "id": 1150,
        "name": "壹加壹路口北",
        "capacity": 20,
        "availBike": 11,
        "address": "广东省惠州市博罗县",
        "lat": "23.278190",
        "lng": "114.425826"
    }, {
        "id": 1088,
        "name": "塘敢布匹市场",
        "capacity": 16,
        "availBike": 7,
        "address": "广东省河源市龙川县",
        "lat": "24.146751",
        "lng": "115.413540"
    }, {
        "id": 420,
        "name": "民营科技园",
        "capacity": 30,
        "availBike": 19,
        "address": "广东省惠州市博罗县Y475",
        "lat": "23.250091",
        "lng": "114.137620"
    }, {
        "id": 2049,
        "name": "曹二农贸市场",
        "capacity": 30,
        "availBike": 18,
        "address": "广东省河源市龙川县Y032",
        "lat": "24.708078",
        "lng": "115.449870"
    }, {
        "id": 1330,
        "name": "开发区建委",
        "capacity": 26,
        "availBike": 17,
        "address": "广东省河源市东源县",
        "lat": "23.767877",
        "lng": "114.774930"
    }, {
        "id": 211,
        "name": "南区医院",
        "capacity": 40,
        "availBike": 13,
        "address": "福建省龙岩市连城县G205",
        "lat": "25.652145",
        "lng": "116.769000"
    }, {
        "id": 2041,
        "name": "南方绿博园",
        "capacity": 26,
        "availBike": 14,
        "address": "江西省赣州市寻乌县",
        "lat": "24.960353",
        "lng": "115.683160"
    }, {
        "id": 2034,
        "name": "古三小公园",
        "capacity": 28,
        "availBike": 13,
        "address": "广东省惠州市博罗县",
        "lat": "23.290925",
        "lng": "113.896670"
    }, {
        "id": 1161,
        "name": "三乡市场天桥下",
        "capacity": 28,
        "availBike": 13,
        "address": "广东省梅州市兴宁市Y152",
        "lat": "24.493091",
        "lng": "115.733970"
    }, {
        "id": 185,
        "name": "公交城东站场",
        "capacity": 30,
        "availBike": 21,
        "address": "福建省龙岩市上杭县",
        "lat": "25.331854",
        "lng": "116.468170"
    }, {
        "id": 2032,
        "name": "冈东村委",
        "capacity": 20,
        "availBike": 9,
        "address": "广东省中山市中山市市辖区东凤沿江路",
        "lat": "22.686914",
        "lng": "113.266550"
    }, {
        "id": 62,
        "name": "金鹰广场",
        "capacity": 20,
        "availBike": 6,
        "address": "广东省东莞市东莞市市辖区西畔一巷4",
        "lat": "22.801339",
        "lng": "113.691420"
    }, {
        "id": 1137,
        "name": "三溪村",
        "capacity": 14,
        "availBike": 6,
        "address": "福建省龙岩市连城县连新公路",
        "lat": "25.643166",
        "lng": "116.926050"
    }, {
        "id": 8016,
        "name": "一知万",
        "capacity": 26,
        "availBike": 7,
        "address": "广东省东莞市东莞市市辖区",
        "lat": "22.892890",
        "lng": "114.138024"
    }, {
        "id": 1905,
        "name": "锦绣东方",
        "capacity": 30,
        "availBike": 17,
        "address": "广东省河源市和平县S339",
        "lat": "24.394483",
        "lng": "115.137610"
    }, {
        "id": 1060,
        "name": "薪愿居二期",
        "capacity": 12,
        "availBike": 9,
        "address": "广东省惠州市博罗县",
        "lat": "23.315194",
        "lng": "114.455726"
    }, {
        "id": 1192,
        "name": "丽景小区",
        "capacity": 16,
        "availBike": 4,
        "address": "广东省河源市龙川县",
        "lat": "24.130908",
        "lng": "115.340480"
    }, {
        "id": 1006,
        "name": "顺昌广场南",
        "capacity": 12,
        "availBike": 3,
        "address": "广东省河源市龙川县",
        "lat": "24.126914",
        "lng": "115.346674"
    }, {
        "id": 1041,
        "name": "第二工业区站",
        "capacity": 20,
        "availBike": 13,
        "address": "福建省龙岩市连城县",
        "lat": "25.625909",
        "lng": "116.949130"
    }, {
        "id": 332,
        "name": "世纪新城销售部",
        "capacity": 30,
        "availBike": 22,
        "address": "广东省河源市东源县G205",
        "lat": "23.845861",
        "lng": "114.797120"
    }, {
        "id": 2003,
        "name": "欧普照明",
        "capacity": 30,
        "availBike": 17,
        "address": "广东省惠州市龙门县S244",
        "lat": "23.689543",
        "lng": "114.315460"
    }, {
        "id": 49,
        "name": "文化艺术中心",
        "capacity": 20,
        "availBike": 16,
        "address": "福建省龙岩市连城县",
        "lat": "25.763025",
        "lng": "116.907640"
    }, {
        "id": 1004,
        "name": "沙坦路口西南侧",
        "capacity": 20,
        "availBike": 14,
        "address": "广东省惠州市博罗县G25(长深高速公路)",
        "lat": "23.340666",
        "lng": "114.494435"
    }, {
        "id": 182,
        "name": "民权路东",
        "capacity": 24,
        "availBike": 6,
        "address": "福建省龙岩市上杭县",
        "lat": "25.340082",
        "lng": "116.419700"
    }, {
        "id": 191,
        "name": "槎南路东",
        "capacity": 20,
        "availBike": 3,
        "address": "福建省龙岩市武平县",
        "lat": "25.043715",
        "lng": "116.124700"
    }, {
        "id": 1091,
        "name": "前陇市场",
        "capacity": 20,
        "availBike": 6,
        "address": "广东省惠州市惠城区",
        "lat": "23.342648",
        "lng": "114.543140"
    }, {
        "id": 1318,
        "name": "火炬职院西门",
        "capacity": 30,
        "availBike": 13,
        "address": "广东省惠州市博罗县S244",
        "lat": "23.320824",
        "lng": "114.291390"
    }, {
        "id": 8006,
        "name": "市民广场北",
        "capacity": 28,
        "availBike": 13,
        "address": "福建省三明市永安市",
        "lat": "25.685296",
        "lng": "117.140890"
    }, {
        "id": 1358,
        "name": "江尾头",
        "capacity": 20,
        "availBike": 10,
        "address": "福建省龙岩市连城县G205",
        "lat": "25.611139",
        "lng": "116.721720"
    }, {
        "id": 147,
        "name": "石岐中学",
        "capacity": 40,
        "availBike": 31,
        "address": "江西省赣州市寻乌县",
        "lat": "24.726035",
        "lng": "115.755636"
    }, {
        "id": 1024,
        "name": "三乡载德小学",
        "capacity": 20,
        "availBike": 7,
        "address": "广东省河源市龙川县",
        "lat": "24.335321",
        "lng": "115.556555"
    }, {
        "id": 1343,
        "name": "尚城",
        "capacity": 20,
        "availBike": 14,
        "address": "广东省河源市源城区Y152",
        "lat": "23.617003",
        "lng": "114.604360"
    }, {
        "id": 22,
        "name": "东苑路中",
        "capacity": 20,
        "availBike": 10,
        "address": "广东省惠州市博罗县X216",
        "lat": "23.115464",
        "lng": "114.041324"
    }, {
        "id": 122,
        "name": "电机厂",
        "capacity": 20,
        "availBike": 9,
        "address": "江西省赣州市寻乌县",
        "lat": "24.692871",
        "lng": "115.701614"
    }, {
        "id": 8018,
        "name": "祥圣华苑",
        "capacity": 30,
        "availBike": 8,
        "address": "广东省梅州市平远县Y154",
        "lat": "24.493039",
        "lng": "115.862930"
    }, {
        "id": 83,
        "name": "沙岗村北",
        "capacity": 16,
        "availBike": 6,
        "address": "广东省河源市龙川县",
        "lat": "24.496451",
        "lng": "115.527220"
    }, {
        "id": 82,
        "name": "港航管理局",
        "capacity": 30,
        "availBike": 16,
        "address": "广东省梅州市平远县",
        "lat": "24.714982",
        "lng": "115.783390"
    }, {
        "id": 59,
        "name": "人民医院",
        "capacity": 42,
        "availBike": 32,
        "address": "福建省龙岩市上杭县X641",
        "lat": "25.293587",
        "lng": "116.369570"
    }, {
        "id": 2005,
        "name": "古镇大信新都汇南",
        "capacity": 40,
        "availBike": 18,
        "address": "广东省河源市东源县Y342",
        "lat": "24.069044",
        "lng": "114.747830"
    }, {
        "id": 8002,
        "name": "汇乔花园",
        "capacity": 36,
        "availBike": 14,
        "address": "广东省深圳市宝安区S31(龙大高速公路)",
        "lat": "22.732938",
        "lng": "113.959884"
    }, {
        "id": 8030,
        "name": "建设银行(汇昌)",
        "capacity": 40,
        "availBike": 10,
        "address": "广东省河源市东源县Y720",
        "lat": "23.762784",
        "lng": "115.094635"
    }, {
        "id": 154,
        "name": "汽车总站",
        "capacity": 30,
        "availBike": 23,
        "address": "福建省龙岩市武平县X640",
        "lat": "25.027942",
        "lng": "116.046290"
    }, {
        "id": 2028,
        "name": "冈南老人院",
        "capacity": 22,
        "availBike": 17,
        "address": "福建省龙岩市武平县",
        "lat": "25.143520",
        "lng": "115.911960"
    }, {
        "id": 456,
        "name": "祈安苑北门",
        "capacity": 38,
        "availBike": 19,
        "address": "广东省东莞市东莞市市辖区上中路",
        "lat": "22.967292",
        "lng": "113.877210"
    }, {
        "id": 146,
        "name": "吉之岛",
        "capacity": 30,
        "availBike": 25,
        "address": "广东省河源市东源县Y411",
        "lat": "24.068271",
        "lng": "115.045240"
    }, {
        "id": 1158,
        "name": "碧华牌坊",
        "capacity": 16,
        "availBike": 10,
        "address": "福建省龙岩市连城县",
        "lat": "25.532237",
        "lng": "116.816650"
    }, {
        "id": 153,
        "name": "西区邮局",
        "capacity": 24,
        "availBike": 8,
        "address": "广东省梅州市兴宁市",
        "lat": "24.602569",
        "lng": "115.594350"
    }, {
        "id": 2025,
        "name": "江边公园",
        "capacity": 26,
        "availBike": 16,
        "address": "广东省河源市东源县Y279",
        "lat": "24.208542",
        "lng": "114.910400"
    }, {
        "id": 74,
        "name": "岐关西",
        "capacity": 30,
        "availBike": 15,
        "address": "广东省河源市龙川县",
        "lat": "24.355084",
        "lng": "115.367734"
    }, {
        "id": 380,
        "name": "中信左岸",
        "capacity": 40,
        "availBike": 15,
        "address": "福建省龙岩市连城县",
        "lat": "25.775238",
        "lng": "116.870356"
    }, {
        "id": 2044,
        "name": "海洲市场",
        "capacity": 18,
        "availBike": 8,
        "address": "广东省广州市番禺区安顺路",
        "lat": "22.913664",
        "lng": "113.453860"
    }, {
        "id": 364,
        "name": "南区办事处",
        "capacity": 40,
        "availBike": 24,
        "address": "福建省龙岩市上杭县",
        "lat": "25.339344",
        "lng": "116.432620"
    }, {
        "id": 1145,
        "name": "新圩105国道村口",
        "capacity": 16,
        "availBike": 9,
        "address": "广东省东莞市东莞市市辖区",
        "lat": "22.857715",
        "lng": "114.040120"
    }, {
        "id": 88,
        "name": "民生路天桥",
        "capacity": 30,
        "availBike": 18,
        "address": "福建省龙岩市武平县",
        "lat": "25.146465",
        "lng": "116.214434"
    }, {
        "id": 116,
        "name": "天明豪庭",
        "capacity": 30,
        "availBike": 5,
        "address": "广东省惠州市博罗县X217",
        "lat": "23.254930",
        "lng": "114.160890"
    }, {
        "id": 261,
        "name": "星辰花园",
        "capacity": 30,
        "availBike": 18,
        "address": "广东省河源市龙川县X174",
        "lat": "24.317839",
        "lng": "115.264460"
    }, {
        "id": 125,
        "name": "第一城",
        "capacity": 40,
        "availBike": 21,
        "address": "福建省龙岩市武平县工业大道",
        "lat": "25.054798",
        "lng": "116.110170"
    }, {
        "id": 130,
        "name": "比华利山庄",
        "capacity": 24,
        "availBike": 18,
        "address": "广东省梅州市平远县",
        "lat": "24.781468",
        "lng": "115.837250"
    }, {
        "id": 1001,
        "name": "大布工业中心",
        "capacity": 16,
        "availBike": 5,
        "address": "广东省河源市东源县",
        "lat": "23.933789",
        "lng": "115.135820"
    }, {
        "id": 462,
        "name": "东河北别墅区南门",
        "capacity": 30,
        "availBike": 15,
        "address": "广东省河源市源城区",
        "lat": "23.708323",
        "lng": "114.639660"
    }, {
        "id": 134,
        "name": "奕翠园",
        "capacity": 30,
        "availBike": 11,
        "address": "广东省惠州市博罗县Y522",
        "lat": "23.123763",
        "lng": "114.061126"
    }, {
        "id": 203,
        "name": "恒海花园",
        "capacity": 20,
        "availBike": 10,
        "address": "广东省河源市龙川县",
        "lat": "24.277281",
        "lng": "115.274994"
    }, {
        "id": 115,
        "name": "恒基花园4期",
        "capacity": 20,
        "availBike": 12,
        "address": "广东省惠州市博罗县X218",
        "lat": "23.506552",
        "lng": "114.435180"
    }, {
        "id": 466,
        "name": "中山日报印刷厂",
        "capacity": 34,
        "availBike": 25,
        "address": "广东省河源市龙川县",
        "lat": "24.410720",
        "lng": "115.410440"
    }, {
        "id": 38,
        "name": "中级人民法院",
        "capacity": 30,
        "availBike": 14,
        "address": "广东省河源市龙川县",
        "lat": "24.135873",
        "lng": "115.138390"
    }, {
        "id": 1184,
        "name": "外经大楼",
        "capacity": 16,
        "availBike": 7,
        "address": "广东省东莞市东莞市市辖区东环一街",
        "lat": "22.902138",
        "lng": "114.024230"
    }, {
        "id": 246,
        "name": "金柏酒店",
        "capacity": 30,
        "availBike": 16,
        "address": "福建省龙岩市长汀县",
        "lat": "25.478501",
        "lng": "116.550560"
    }, {
        "id": 391,
        "name": "远洋城美域",
        "capacity": 30,
        "availBike": 23,
        "address": "广东省惠州市博罗县",
        "lat": "23.428748",
        "lng": "114.419540"
    }, {
        "id": 1009,
        "name": "雅居乐V型牌坊",
        "capacity": 12,
        "availBike": 4,
        "address": "广东省梅州市平远县",
        "lat": "24.674546",
        "lng": "115.942114"
    }, {
        "id": 1194,
        "name": "城桂工业中心",
        "capacity": 20,
        "availBike": 5,
        "address": "广东省河源市龙川县Y813",
        "lat": "24.263419",
        "lng": "115.480575"
    }, {
        "id": 1331,
        "name": "中山港客运码头",
        "capacity": 20,
        "availBike": 10,
        "address": "广东省惠州市博罗县S244",
        "lat": "23.298896",
        "lng": "114.265650"
    }, {
        "id": 1023,
        "name": "新城路与广场路口",
        "capacity": 14,
        "availBike": 7,
        "address": "广东省梅州市平远县Y122",
        "lat": "24.763042",
        "lng": "116.036465"
    }, {
        "id": 8048,
        "name": "安阜市场",
        "capacity": 30,
        "availBike": 7,
        "address": "",
        "lat": "23.849572",
        "lng": "135.197930"
    }, {
        "id": 249,
        "name": "凯茵新城销售部",
        "capacity": 18,
        "availBike": 5,
        "address": "福建省龙岩市连城县G205",
        "lat": "25.648632",
        "lng": "116.853510"
    }, {
        "id": 2002,
        "name": "乐加福",
        "capacity": 30,
        "availBike": 20,
        "address": "广东省惠州市博罗县",
        "lat": "23.686199",
        "lng": "114.378926"
    }, {
        "id": 1105,
        "name": "鸦岗村委公园",
        "capacity": 14,
        "availBike": 10,
        "address": "福建省三明市永安市",
        "lat": "25.726472",
        "lng": "117.098200"
    }, {
        "id": 103,
        "name": "富华酒店",
        "capacity": 40,
        "availBike": 0,
        "address": "广东省惠州市博罗县Y555",
        "lat": "23.138122",
        "lng": "114.029386"
    }, {
        "id": 1025,
        "name": "社保局",
        "capacity": 28,
        "availBike": 12,
        "address": "福建省龙岩市连城县",
        "lat": "25.411472",
        "lng": "116.718450"
    }, {
        "id": 3,
        "name": "水云轩",
        "capacity": 24,
        "availBike": 17,
        "address": "广东省东莞市东莞市市辖区大宁南坊路12号",
        "lat": "22.823013",
        "lng": "113.721200"
    }, {
        "id": 8014,
        "name": "坦洲行政服务中心",
        "capacity": 30,
        "availBike": 6,
        "address": "广东省梅州市兴宁市Y142",
        "lat": "24.386152",
        "lng": "115.742570"
    }, {
        "id": 1195,
        "name": "沙岗路口",
        "capacity": 26,
        "availBike": 15,
        "address": "广东省河源市东源县Y621",
        "lat": "23.780038",
        "lng": "114.964865"
    }, {
        "id": 957,
        "name": "大信新都汇2",
        "capacity": 38,
        "availBike": 10,
        "address": "广东省惠州市博罗县",
        "lat": "23.580037",
        "lng": "114.512200"
    }, {
        "id": 385,
        "name": "和景花园西门",
        "capacity": 30,
        "availBike": 20,
        "address": "广东省河源市源城区",
        "lat": "23.649304",
        "lng": "114.643530"
    }, {
        "id": 194,
        "name": "朗晴假日北",
        "capacity": 30,
        "availBike": 17,
        "address": "福建省龙岩市连城县",
        "lat": "25.572209",
        "lng": "116.685376"
    }, {
        "id": 416,
        "name": "中山市疾控中心",
        "capacity": 30,
        "availBike": 11,
        "address": "广东省广州市南沙区龙穴大道北",
        "lat": "22.692149",
        "lng": "113.626500"
    }, {
        "id": 1180,
        "name": "新城岚晴站",
        "capacity": 20,
        "availBike": 6,
        "address": "广东省河源市龙川县Y033",
        "lat": "24.093219",
        "lng": "115.318340"
    }, {
        "id": 457,
        "name": "天水湖西门",
        "capacity": 28,
        "availBike": 23,
        "address": "广东省梅州市平远县X040",
        "lat": "24.806939",
        "lng": "115.821700"
    }, {
        "id": 1042,
        "name": "雅居乐中心城路口",
        "capacity": 26,
        "availBike": 16,
        "address": "广东省惠州市博罗县",
        "lat": "23.260051",
        "lng": "114.436120"
    }, {
        "id": 247,
        "name": "凯茵豪园正门",
        "capacity": 18,
        "availBike": 0,
        "address": "广东省中山市中山市市辖区浦引路3号",
        "lat": "22.548720",
        "lng": "113.505514"
    }, {
        "id": 250,
        "name": "凯茵公交车总站",
        "capacity": 30,
        "availBike": 9,
        "address": "广东省惠州市博罗县Y375",
        "lat": "23.487386",
        "lng": "114.523094"
    }, {
        "id": 24,
        "name": "东苑路南",
        "capacity": 18,
        "availBike": 5,
        "address": "广东省惠州市博罗县",
        "lat": "23.303576",
        "lng": "114.247960"
    }, {
        "id": 6,
        "name": "盛景园南",
        "capacity": 20,
        "availBike": 18,
        "address": "广东省河源市源城区S242(河紫路)",
        "lat": "23.732672",
        "lng": "114.717560"
    }, {
        "id": 909,
        "name": "华侨高中部2",
        "capacity": 30,
        "availBike": 11,
        "address": "广东省梅州市平远县",
        "lat": "24.909185",
        "lng": "115.940595"
    }, {
        "id": 1075,
        "name": "阿洛奇美帝",
        "capacity": 20,
        "availBike": 12,
        "address": "广东省梅州市平远县X965",
        "lat": "24.634669",
        "lng": "115.868930"
    }, {
        "id": 212,
        "name": "恒美村",
        "capacity": 30,
        "availBike": 19,
        "address": "福建省龙岩市上杭县",
        "lat": "25.335056",
        "lng": "116.433220"
    }, {
        "id": 1198,
        "name": "东城畔山",
        "capacity": 20,
        "availBike": 10,
        "address": "广东省东莞市东莞市市辖区普世一路",
        "lat": "23.027889",
        "lng": "114.139580"
    }, {
        "id": 273,
        "name": "检验检疫局",
        "capacity": 20,
        "availBike": 12,
        "address": "广东省河源市龙川县",
        "lat": "24.181028",
        "lng": "115.214890"
    }, {
        "id": 84,
        "name": "南下码头",
        "capacity": 18,
        "availBike": 11,
        "address": "福建省龙岩市武平县",
        "lat": "24.994091",
        "lng": "116.062020"
    }, {
        "id": 2004,
        "name": "古镇灯饰大厦",
        "capacity": 30,
        "availBike": 18,
        "address": "广东省惠州市龙门县",
        "lat": "23.697135",
        "lng": "114.359380"
    }, {
        "id": 1067,
        "name": "平东市场",
        "capacity": 20,
        "availBike": 10,
        "address": "福建省龙岩市上杭县",
        "lat": "25.239715",
        "lng": "116.561840"
    }, {
        "id": 216,
        "name": "城南客运站",
        "capacity": 28,
        "availBike": 13,
        "address": "广东省梅州市平远县",
        "lat": "24.736517",
        "lng": "115.793240"
    }, {
        "id": 470,
        "name": "龙井街兴龙街路口",
        "capacity": 18,
        "availBike": 2,
        "address": "广东省河源市龙川县S339",
        "lat": "24.402299",
        "lng": "115.426235"
    }, {
        "id": 2024,
        "name": "灯都灯饰配件",
        "capacity": 18,
        "availBike": 14,
        "address": "福建省龙岩市长汀县",
        "lat": "25.610389",
        "lng": "116.436350"
    }, {
        "id": 209,
        "name": "星华路日华路路口",
        "capacity": 30,
        "availBike": 15,
        "address": "广东省河源市龙川县",
        "lat": "24.493442",
        "lng": "115.526360"
    }, {
        "id": 1039,
        "name": "大记酒楼",
        "capacity": 20,
        "availBike": 14,
        "address": "广东省惠州市博罗县",
        "lat": "23.449190",
        "lng": "114.606610"
    }, {
        "id": 2014,
        "name": "古镇镇政府",
        "capacity": 40,
        "availBike": 25,
        "address": "福建省龙岩市长汀县",
        "lat": "25.591709",
        "lng": "116.404140"
    }, {
        "id": 2046,
        "name": "海洲文化活动中心",
        "capacity": 16,
        "availBike": 11,
        "address": "广东省惠州市龙门县S119",
        "lat": "23.669994",
        "lng": "114.266550"
    }, {
        "id": 409,
        "name": "安山牌坊",
        "capacity": 30,
        "availBike": 6,
        "address": "福建省龙岩市上杭县",
        "lat": "25.274108",
        "lng": "116.346720"
    }, {
        "id": 2,
        "name": "香格里拉酒店",
        "capacity": 24,
        "availBike": 18,
        "address": "福建省龙岩市武平县",
        "lat": "24.998193",
        "lng": "116.063490"
    }, {
        "id": 85,
        "name": "中山电大",
        "capacity": 20,
        "availBike": 6,
        "address": "广东省梅州市兴宁市",
        "lat": "24.503813",
        "lng": "115.514310"
    }, {
        "id": 1326,
        "name": "华佗山公园",
        "capacity": 30,
        "availBike": 14,
        "address": "广东省中山市中山市市辖区港义路",
        "lat": "22.551836",
        "lng": "113.494246"
    }, {
        "id": 994,
        "name": "朗晴假日北2",
        "capacity": 39,
        "availBike": 10,
        "address": "广东省中山市中山市市辖区S111(番中路)",
        "lat": "22.592173",
        "lng": "113.472280"
    }, {
        "id": 1031,
        "name": "柏丽广场北",
        "capacity": 10,
        "availBike": 5,
        "address": "广东省梅州市兴宁市Y504",
        "lat": "24.429779",
        "lng": "115.668284"
    }, {
        "id": 1047,
        "name": "圩仔居委会公园",
        "capacity": 12,
        "availBike": 5,
        "address": "广东省深圳市宝安区",
        "lat": "22.817002",
        "lng": "113.930384"
    }, {
        "id": 177,
        "name": "起湾沙路路口",
        "capacity": 20,
        "availBike": 9,
        "address": "广东省东莞市东莞市市辖区兴园路",
        "lat": "22.949191",
        "lng": "113.842856"
    }, {
        "id": 467,
        "name": "洋角口村",
        "capacity": 32,
        "availBike": 14,
        "address": "广东省河源市东源县",
        "lat": "24.080036",
        "lng": "115.041710"
    }, {
        "id": 1338,
        "name": "健康基地",
        "capacity": 30,
        "availBike": 0,
        "address": "福建省龙岩市上杭县",
        "lat": "25.360000",
        "lng": "116.526300"
    }, {
        "id": 1320,
        "name": "张家边一幼",
        "capacity": 20,
        "availBike": 11,
        "address": "广东省东莞市东莞市市辖区水厂路",
        "lat": "22.746532",
        "lng": "113.688020"
    }, {
        "id": 1311,
        "name": "开发区文化广场",
        "capacity": 20,
        "availBike": 9,
        "address": "广东省中山市中山市市辖区护龙南路",
        "lat": "22.607401",
        "lng": "113.491940"
    }, {
        "id": 464,
        "name": "中环广场",
        "capacity": 30,
        "availBike": 20,
        "address": "江西省赣州市寻乌县",
        "lat": "24.696396",
        "lng": "115.778840"
    }, {
        "id": 188,
        "name": "翠景文化中心",
        "capacity": 30,
        "availBike": 11,
        "address": "福建省龙岩市武平县",
        "lat": "25.204130",
        "lng": "116.238480"
    }, {
        "id": 70,
        "name": "柏苑新村",
        "capacity": 16,
        "availBike": 11,
        "address": "广东省惠州市博罗县",
        "lat": "23.442696",
        "lng": "114.386140"
    }, {
        "id": 1196,
        "name": "麻斗站",
        "capacity": 16,
        "availBike": 4,
        "address": "广东省梅州市平远县X037",
        "lat": "24.801847",
        "lng": "116.002750"
    }, {
        "id": 1355,
        "name": "陵岗村",
        "capacity": 20,
        "availBike": 10,
        "address": "广东省广州市南沙区龙穴大道北",
        "lat": "22.701387",
        "lng": "113.625950"
    }, {
        "id": 1200,
        "name": "亲子乐园",
        "capacity": 16,
        "availBike": 11,
        "address": "广东省河源市龙川县",
        "lat": "24.028899",
        "lng": "115.249210"
    }, {
        "id": 1350,
        "name": "临海纬创科技园",
        "capacity": 30,
        "availBike": 7,
        "address": "广东省中山市中山市市辖区X575",
        "lat": "22.580331",
        "lng": "113.609446"
    }, {
        "id": 1182,
        "name": "沙伯特",
        "capacity": 18,
        "availBike": 10,
        "address": "广东省中山市中山市市辖区S268",
        "lat": "22.395661",
        "lng": "113.448170"
    }, {
        "id": 251,
        "name": "凯茵新城雅湖居",
        "capacity": 20,
        "availBike": 12,
        "address": "福建省龙岩市连城县",
        "lat": "25.697729",
        "lng": "116.899970"
    }, {
        "id": 126,
        "name": "悦来南路南安路口",
        "capacity": 30,
        "availBike": 17,
        "address": "广东省东莞市东莞市市辖区S304(虎门港支线)",
        "lat": "22.862854",
        "lng": "113.749836"
    }, {
        "id": 25,
        "name": "顺景花园",
        "capacity": 20,
        "availBike": 6,
        "address": "福建省龙岩市武平县",
        "lat": "25.186681",
        "lng": "116.279450"
    }, {
        "id": 21,
        "name": "东苑路北",
        "capacity": 20,
        "availBike": 15,
        "address": "广东省东莞市东莞市市辖区",
        "lat": "22.884013",
        "lng": "113.789965"
    }, {
        "id": 5,
        "name": "盛景园北",
        "capacity": 20,
        "availBike": 10,
        "address": "广东省惠州市博罗县S244",
        "lat": "23.263309",
        "lng": "114.206960"
    }, {
        "id": 121,
        "name": "苏华赞医院",
        "capacity": 18,
        "availBike": 10,
        "address": "广东省河源市东源县Y468",
        "lat": "23.997697",
        "lng": "114.958040"
    }, {
        "id": 45,
        "name": "体育场东",
        "capacity": 40,
        "availBike": 28,
        "address": "福建省龙岩市连城县",
        "lat": "25.534894",
        "lng": "116.653840"
    }, {
        "id": 2016,
        "name": "冈东",
        "capacity": 18,
        "availBike": 10,
        "address": "广东省河源市东源县X163",
        "lat": "24.242091",
        "lng": "114.945910"
    }, {
        "id": 465,
        "name": "石岐创业园",
        "capacity": 30,
        "availBike": 21,
        "address": "福建省龙岩市连城县",
        "lat": "25.850237",
        "lng": "116.946270"
    }, {
        "id": 1368,
        "name": "铂爵山",
        "capacity": 24,
        "availBike": 12,
        "address": "广东省河源市龙川县",
        "lat": "24.339334",
        "lng": "115.392756"
    }, {
        "id": 1102,
        "name": "鸦岗小学",
        "capacity": 18,
        "availBike": 9,
        "address": "广东省广州市南沙区",
        "lat": "22.596589",
        "lng": "113.728156"
    }, {
        "id": 1903,
        "name": "广济医院",
        "capacity": 40,
        "availBike": 23,
        "address": "广东省佛山市顺德区华天东四路",
        "lat": "22.776714",
        "lng": "113.363260"
    }, {
        "id": 23,
        "name": "竹苑路口",
        "capacity": 20,
        "availBike": 11,
        "address": "广东省惠州市博罗县",
        "lat": "23.341754",
        "lng": "114.287164"
    }, {
        "id": 1367,
        "name": "佰汇广场",
        "capacity": 30,
        "availBike": 21,
        "address": "广东省广州市南沙区龙穴大道北",
        "lat": "22.703115",
        "lng": "113.611770"
    }, {
        "id": 93,
        "name": "中山公园",
        "capacity": 30,
        "availBike": 20,
        "address": "广东省梅州市平远县",
        "lat": "24.883210",
        "lng": "115.914330"
    }, {
        "id": 1603,
        "name": "美景市场",
        "capacity": 16,
        "availBike": 9,
        "address": "广东省河源市东源县",
        "lat": "24.147055",
        "lng": "115.084110"
    }, {
        "id": 2022,
        "name": "江南海岸家园",
        "capacity": 40,
        "availBike": 24,
        "address": "广东省广州市番禺区Y013(新兴西路)",
        "lat": "22.925512",
        "lng": "113.523814"
    }, {
        "id": 469,
        "name": "中山市图书馆",
        "capacity": 24,
        "availBike": 16,
        "address": "广东省惠州市博罗县",
        "lat": "23.474553",
        "lng": "114.423040"
    }, {
        "id": 2907,
        "name": "海洲健身广场2",
        "capacity": 42,
        "availBike": 2,
        "address": "广东省河源市和平县",
        "lat": "24.418060",
        "lng": "115.078090"
    }, {
        "id": 18,
        "name": "永怡花园",
        "capacity": 28,
        "availBike": 4,
        "address": "广东省河源市东源县Y148",
        "lat": "23.798538",
        "lng": "114.765430"
    }, {
        "id": 461,
        "name": "碧海名苑",
        "capacity": 30,
        "availBike": 17,
        "address": "广东省河源市东源县镇南路",
        "lat": "23.828967",
        "lng": "114.772570"
    }, {
        "id": 137,
        "name": "万家广场",
        "capacity": 40,
        "availBike": 22,
        "address": "福建省龙岩市武平县S205",
        "lat": "24.938351",
        "lng": "116.024160"
    }, {
        "id": 167,
        "name": "大信海岸家园",
        "capacity": 40,
        "availBike": 12,
        "address": "福建省龙岩市武平县工业大道",
        "lat": "25.067492",
        "lng": "116.095270"
    }, {
        "id": 1022,
        "name": "英伦花园",
        "capacity": 22,
        "availBike": 15,
        "address": "福建省龙岩市连城县",
        "lat": "25.673707",
        "lng": "117.018310"
    }, {
        "id": 1204,
        "name": "雅居乐佰利山路口",
        "capacity": 26,
        "availBike": 8,
        "address": "福建省龙岩市上杭县",
        "lat": "25.175391",
        "lng": "116.503360"
    }, {
        "id": 1123,
        "name": "文阁塔公园",
        "capacity": 12,
        "availBike": 5,
        "address": "广东省河源市龙川县",
        "lat": "24.206521",
        "lng": "115.429195"
    }, {
        "id": 954,
        "name": "金钟水库驿站2",
        "capacity": 30,
        "availBike": 25,
        "address": "广东省惠州市博罗县",
        "lat": "23.148900",
        "lng": "114.106940"
    }, {
        "id": 128,
        "name": "悦来南路博爱路口",
        "capacity": 29,
        "availBike": 16,
        "address": "江西省赣州市寻乌县X401",
        "lat": "24.654973",
        "lng": "115.684004"
    }, {
        "id": 104,
        "name": "喜来登酒店",
        "capacity": 30,
        "availBike": 5,
        "address": "广东省河源市东源县",
        "lat": "23.907353",
        "lng": "114.861850"
    }, {
        "id": 1038,
        "name": "富城书店",
        "capacity": 16,
        "availBike": 4,
        "address": "福建省龙岩市连城县",
        "lat": "25.399242",
        "lng": "116.711800"
    }, {
        "id": 183,
        "name": "金都城",
        "capacity": 30,
        "availBike": 16,
        "address": "广东省河源市龙川县",
        "lat": "24.112480",
        "lng": "115.087270"
    }, {
        "id": 1026,
        "name": "壹加壹路口西",
        "capacity": 16,
        "availBike": 11,
        "address": "广东省河源市龙川县Y159",
        "lat": "24.007437",
        "lng": "115.212580"
    }, {
        "id": 69,
        "name": "建设街",
        "capacity": 20,
        "availBike": 14,
        "address": "广东省河源市源城区G25(长深高速公路)",
        "lat": "23.706087",
        "lng": "114.666660"
    }, {
        "id": 8011,
        "name": "锦绣阳光",
        "capacity": 30,
        "availBike": 9,
        "address": "福建省龙岩市连城县",
        "lat": "25.646831",
        "lng": "117.097030"
    }, {
        "id": 1032,
        "name": "宝元鞋厂南门",
        "capacity": 24,
        "availBike": 11,
        "address": "广东省深圳市宝安区S3(广深沿江高速公路)",
        "lat": "22.672562",
        "lng": "113.773280"
    }, {
        "id": 2212,
        "name": "四海百货2",
        "capacity": 40,
        "availBike": 16,
        "address": "广东省河源市东源县",
        "lat": "23.746645",
        "lng": "114.439505"
    }, {
        "id": 8013,
        "name": "七村大友市场",
        "capacity": 26,
        "availBike": 11,
        "address": "福建省龙岩市上杭县",
        "lat": "25.386028",
        "lng": "116.822346"
    }, {
        "id": 193,
        "name": "槎桥村委",
        "capacity": 30,
        "availBike": 17,
        "address": "广东省东莞市东莞市市辖区翠绿步道",
        "lat": "22.873744",
        "lng": "113.783260"
    }, {
        "id": 1050,
        "name": "三乡市场公交站",
        "capacity": 20,
        "availBike": 10,
        "address": "广东省惠州市博罗县",
        "lat": "23.218260",
        "lng": "114.359250"
    }, {
        "id": 42,
        "name": "翡翠花园西门",
        "capacity": 30,
        "availBike": 25,
        "address": "福建省龙岩市武平县",
        "lat": "24.991957",
        "lng": "116.069180"
    }, {
        "id": 1005,
        "name": "大布村委",
        "capacity": 16,
        "availBike": 8,
        "address": "广东省河源市东源县",
        "lat": "23.927564",
        "lng": "115.133920"
    }, {
        "id": 96,
        "name": "悦来路民权路口",
        "capacity": 30,
        "availBike": 11,
        "address": "广东省惠州市博罗县X193",
        "lat": "23.168470",
        "lng": "114.072580"
    }, {
        "id": 1125,
        "name": "桂山中学",
        "capacity": 16,
        "availBike": 7,
        "address": "广东省梅州市平远县",
        "lat": "24.648252",
        "lng": "115.906724"
    }, {
        "id": 2010,
        "name": "交通银行",
        "capacity": 16,
        "availBike": 10,
        "address": "福建省龙岩市武平县",
        "lat": "25.282574",
        "lng": "116.054436"
    }, {
        "id": 933,
        "name": "假日广场2",
        "capacity": 30,
        "availBike": 26,
        "address": "广东省河源市源城区",
        "lat": "23.639346",
        "lng": "114.596620"
    }, {
        "id": 179,
        "name": "白沙湾驿站",
        "capacity": 30,
        "availBike": 11,
        "address": "广东省梅州市兴宁市",
        "lat": "24.547731",
        "lng": "115.552350"
    }, {
        "id": 1366,
        "name": "德仲广场",
        "capacity": 16,
        "availBike": 5,
        "address": "广东省惠州市博罗县",
        "lat": "23.441467",
        "lng": "114.428400"
    }, {
        "id": 1112,
        "name": "南龙市场",
        "capacity": 12,
        "availBike": 9,
        "address": "广东省梅州市兴宁市",
        "lat": "24.489964",
        "lng": "115.726920"
    }, {
        "id": 1187,
        "name": "雍泉山庄",
        "capacity": 16,
        "availBike": 8,
        "address": "广东省梅州市兴宁市",
        "lat": "24.457114",
        "lng": "115.726330"
    }, {
        "id": 1193,
        "name": "金虹云花园",
        "capacity": 16,
        "availBike": 13,
        "address": "福建省龙岩市连城县",
        "lat": "25.472190",
        "lng": "116.820180"
    }, {
        "id": 955,
        "name": "金钟水库驿站3",
        "capacity": 31,
        "availBike": 15,
        "address": "广东省河源市源城区",
        "lat": "23.626470",
        "lng": "114.622300"
    }, {
        "id": 2015,
        "name": "兴业银行",
        "capacity": 28,
        "availBike": 15,
        "address": "福建省龙岩市长汀县",
        "lat": "25.477277",
        "lng": "116.284560"
    }, {
        "id": 54,
        "name": "金钟水库驿站1",
        "capacity": 30,
        "availBike": 25,
        "address": "广东省惠州市博罗县",
        "lat": "23.203876",
        "lng": "114.165540"
    }, {
        "id": 97,
        "name": "交通局",
        "capacity": 40,
        "availBike": 19,
        "address": "福建省三明市永安市",
        "lat": "25.927419",
        "lng": "117.051564"
    }, {
        "id": 32,
        "name": "市人大",
        "capacity": 20,
        "availBike": 16,
        "address": "广东省东莞市东莞市市辖区",
        "lat": "22.893909",
        "lng": "113.790296"
    }, {
        "id": 386,
        "name": "翠景市场",
        "capacity": 30,
        "availBike": 8,
        "address": "福建省龙岩市长汀县",
        "lat": "25.470490",
        "lng": "116.522990"
    }, {
        "id": 468,
        "name": "祈安苑东门",
        "capacity": 34,
        "availBike": 19,
        "address": "广东省河源市源城区南堤路20号",
        "lat": "23.737397",
        "lng": "114.709710"
    }, {
        "id": 1312,
        "name": "置业路口",
        "capacity": 20,
        "availBike": 11,
        "address": "广东省河源市东源县",
        "lat": "23.966783",
        "lng": "114.961260"
    }, {
        "id": 127,
        "name": "南安路东",
        "capacity": 30,
        "availBike": 19,
        "address": "广东省东莞市东莞市市辖区X195(西环路)",
        "lat": "23.036361",
        "lng": "113.939080"
    }, {
        "id": 1015,
        "name": "理工学校",
        "capacity": 40,
        "availBike": 16,
        "address": "广东省河源市紫金县",
        "lat": "23.747261",
        "lng": "114.953026"
    }, {
        "id": 14,
        "name": "全球通公园西",
        "capacity": 20,
        "availBike": 7,
        "address": "广东省惠州市博罗县",
        "lat": "23.447465",
        "lng": "114.420475"
    }, {
        "id": 1098,
        "name": "新圩市场",
        "capacity": 20,
        "availBike": 15,
        "address": "广东省梅州市平远县S332",
        "lat": "24.674597",
        "lng": "115.999720"
    }, {
        "id": 169,
        "name": "湖滨路北",
        "capacity": 24,
        "availBike": 10,
        "address": "福建省龙岩市上杭县X636",
        "lat": "25.414286",
        "lng": "116.482080"
    }, {
        "id": 1179,
        "name": "茅湾下架工业区",
        "capacity": 16,
        "availBike": 8,
        "address": "福建省龙岩市连城县",
        "lat": "25.488541",
        "lng": "116.856085"
    }, {
        "id": 165,
        "name": "大信体育公园",
        "capacity": 40,
        "availBike": 17,
        "address": "江西省赣州市寻乌县",
        "lat": "24.735980",
        "lng": "115.742685"
    }, {
        "id": 1081,
        "name": "雍陌中心公园",
        "capacity": 12,
        "availBike": 6,
        "address": "广东省中山市中山市市辖区",
        "lat": "22.504152",
        "lng": "113.611485"
    }, {
        "id": 8022,
        "name": "坦洲旧桥",
        "capacity": 30,
        "availBike": 15,
        "address": "福建省龙岩市上杭县S308",
        "lat": "25.133801",
        "lng": "116.560560"
    }, {
        "id": 1040,
        "name": "皇冠花园",
        "capacity": 20,
        "availBike": 13,
        "address": "广东省河源市紫金县Y372",
        "lat": "23.694197",
        "lng": "114.868770"
    }, {
        "id": 1186,
        "name": "富和名都南",
        "capacity": 20,
        "availBike": 9,
        "address": "广东省河源市紫金县X168",
        "lat": "23.542431",
        "lng": "114.719144"
    }, {
        "id": 2009,
        "name": "东岸路口",
        "capacity": 22,
        "availBike": 9,
        "address": "广东省河源市龙川县",
        "lat": "24.546734",
        "lng": "115.263870"
    }, {
        "id": 1107,
        "name": "平东商业大街南",
        "capacity": 18,
        "availBike": 9,
        "address": "福建省龙岩市武平县",
        "lat": "24.918719",
        "lng": "116.219710"
    }, {
        "id": 1087,
        "name": "塘敢社区卫生服务",
        "capacity": 20,
        "availBike": 18,
        "address": "广东省深圳市宝安区S3(广深沿江高速公路)",
        "lat": "22.653696",
        "lng": "113.795220"
    }, {
        "id": 41,
        "name": "地税局",
        "capacity": 30,
        "availBike": 14,
        "address": "广东省惠州市博罗县",
        "lat": "23.341017",
        "lng": "114.287460"
    }, {
        "id": 1057,
        "name": "城建大楼",
        "capacity": 16,
        "availBike": 5,
        "address": "广东省惠州市惠城区X208(双洲路)",
        "lat": "23.373893",
        "lng": "114.532146"
    }, {
        "id": 1167,
        "name": "东城花园后门",
        "capacity": 14,
        "availBike": 4,
        "address": "福建省龙岩市上杭县",
        "lat": "25.015323",
        "lng": "116.315410"
    }, {
        "id": 13,
        "name": "盛景酒店",
        "capacity": 22,
        "availBike": 0,
        "address": "福建省龙岩市连城县",
        "lat": "25.542599",
        "lng": "116.671830"
    }, {
        "id": 8041,
        "name": "神州华府",
        "capacity": 20,
        "availBike": 10,
        "address": "福建省龙岩市上杭县",
        "lat": "25.221496",
        "lng": "116.667646"
    }, {
        "id": 1094,
        "name": "西山村委门口",
        "capacity": 12,
        "availBike": 10,
        "address": "福建省龙岩市上杭县",
        "lat": "25.036531",
        "lng": "116.386200"
    }, {
        "id": 1082,
        "name": "罗三妹山公园",
        "capacity": 16,
        "availBike": 8,
        "address": "福建省龙岩市上杭县",
        "lat": "25.287323",
        "lng": "116.607726"
    }, {
        "id": 8012,
        "name": "锦绣车站",
        "capacity": 22,
        "availBike": 12,
        "address": "广东省河源市龙川县X175",
        "lat": "23.993458",
        "lng": "115.318210"
    }, {
        "id": 40,
        "name": "库充北",
        "capacity": 30,
        "availBike": 17,
        "address": "广东省梅州市平远县X040",
        "lat": "24.803869",
        "lng": "115.864350"
    }, {
        "id": 2237,
        "name": "曹一公园2",
        "capacity": 20,
        "availBike": 0,
        "address": "广东省广州市增城市X291(增滩公路)",
        "lat": "23.215884",
        "lng": "113.827374"
    }, {
        "id": 1124,
        "name": "华丰商业街",
        "capacity": 16,
        "availBike": 7,
        "address": "广东省东莞市东莞市市辖区金钱岭三街",
        "lat": "22.910162",
        "lng": "114.032406"
    }, {
        "id": 91,
        "name": "民权路中",
        "capacity": 22,
        "availBike": 9,
        "address": "福建省龙岩市上杭县",
        "lat": "25.316188",
        "lng": "116.391430"
    }, {
        "id": 196,
        "name": "悦来南路南",
        "capacity": 20,
        "availBike": 5,
        "address": "广东省梅州市兴宁市",
        "lat": "24.596695",
        "lng": "115.626366"
    }, {
        "id": 8028,
        "name": "壹加壹(联邦制药)",
        "capacity": 30,
        "availBike": 12,
        "address": "广东省深圳市宝安区上屋大道67号",
        "lat": "22.689385",
        "lng": "113.942370"
    }, {
        "id": 1061,
        "name": "悦景园",
        "capacity": 26,
        "availBike": 20,
        "address": "广东省深圳市宝安区福山路",
        "lat": "22.692980",
        "lng": "113.844220"
    }, {
        "id": 1181,
        "name": "庭记酒楼",
        "capacity": 16,
        "availBike": 6,
        "address": "广东省梅州市平远县Y135",
        "lat": "24.633462",
        "lng": "115.881990"
    }, {
        "id": 56,
        "name": "莲兴酒店",
        "capacity": 20,
        "availBike": 7,
        "address": "江西省赣州市寻乌县",
        "lat": "24.691273",
        "lng": "115.714010"
    }, {
        "id": 1174,
        "name": "宝元大道北交界",
        "capacity": 20,
        "availBike": 12,
        "address": "江西省赣州市寻乌县",
        "lat": "24.588363",
        "lng": "115.818945"
    }, {
        "id": 2017,
        "name": "古镇医院",
        "capacity": 36,
        "availBike": 25,
        "address": "福建省龙岩市连城县",
        "lat": "25.838347",
        "lng": "116.663560"
    }, {
        "id": 57,
        "name": "大信新都汇1",
        "capacity": 42,
        "availBike": 24,
        "address": "福建省三明市永安市",
        "lat": "25.870832",
        "lng": "116.982060"
    }, {
        "id": 117,
        "name": "石岐购书中心",
        "capacity": 24,
        "availBike": 4,
        "address": "广东省梅州市兴宁市",
        "lat": "24.582115",
        "lng": "115.590666"
    }, {
        "id": 1901,
        "name": "南头公园",
        "capacity": 40,
        "availBike": 24,
        "address": "广东省河源市东源县",
        "lat": "24.230111",
        "lng": "114.924704"
    }, {
        "id": 81,
        "name": "银通街博爱路口",
        "capacity": 20,
        "availBike": 10,
        "address": "福建省龙岩市连城县",
        "lat": "25.525270",
        "lng": "116.642595"
    }, {
        "id": 268,
        "name": "沙朗市场",
        "capacity": 40,
        "availBike": 18,
        "address": "福建省三明市永安市",
        "lat": "25.961835",
        "lng": "117.010710"
    }, {
        "id": 1323,
        "name": "皇爵酒店",
        "capacity": 20,
        "availBike": 8,
        "address": "福建省龙岩市上杭县",
        "lat": "25.245116",
        "lng": "116.382116"
    }, {
        "id": 2008,
        "name": "飞利浦照明",
        "capacity": 20,
        "availBike": 10,
        "address": "广东省河源市东源县",
        "lat": "24.246682",
        "lng": "114.972000"
    }, {
        "id": 109,
        "name": "侨中高中部",
        "capacity": 40,
        "availBike": 25,
        "address": "广东省惠州市博罗县",
        "lat": "23.401469",
        "lng": "114.316000"
    }, {
        "id": 145,
        "name": "三溪村西",
        "capacity": 20,
        "availBike": 7,
        "address": "广东省惠州市博罗县S244",
        "lat": "23.383828",
        "lng": "114.374990"
    }, {
        "id": 210,
        "name": "南区市场",
        "capacity": 24,
        "availBike": 10,
        "address": "广东省河源市龙川县S228",
        "lat": "24.333757",
        "lng": "115.346380"
    }, {
        "id": 157,
        "name": "西区电脑城",
        "capacity": 30,
        "availBike": 13,
        "address": "广东省河源市东源县G205",
        "lat": "23.844036",
        "lng": "114.785580"
    }, {
        "id": 253,
        "name": "眼科医院",
        "capacity": 20,
        "availBike": 6,
        "address": "广东省河源市龙川县X173",
        "lat": "24.185150",
        "lng": "115.148940"
    }, {
        "id": 472,
        "name": "环茂一路",
        "capacity": 20,
        "availBike": 0,
        "address": "福建省龙岩市武平县Y005",
        "lat": "25.198774",
        "lng": "116.344380"
    }, {
        "id": 1156,
        "name": "吉雅花园",
        "capacity": 16,
        "availBike": 7,
        "address": "福建省龙岩市上杭县",
        "lat": "25.072275",
        "lng": "116.330140"
    }, {
        "id": 1347,
        "name": "临海中船基地",
        "capacity": 30,
        "availBike": 24,
        "address": "广东省梅州市兴宁市Y221",
        "lat": "24.458631",
        "lng": "115.676710"
    }, {
        "id": 95,
        "name": "悦来路逢源路口",
        "capacity": 30,
        "availBike": 20,
        "address": "福建省三明市永安市",
        "lat": "25.851776",
        "lng": "116.963416"
    }, {
        "id": 257,
        "name": "西区中心小学",
        "capacity": 20,
        "availBike": 12,
        "address": "福建省龙岩市上杭县X641",
        "lat": "25.310749",
        "lng": "116.342394"
    }, {
        "id": 136,
        "name": "紫马岭公园",
        "capacity": 40,
        "availBike": 15,
        "address": "广东省惠州市博罗县",
        "lat": "23.147179",
        "lng": "114.090070"
    }, {
        "id": 1169,
        "name": "雅居乐时兴",
        "capacity": 14,
        "availBike": 7,
        "address": "广东省梅州市平远县G206",
        "lat": "24.620477",
        "lng": "115.854100"
    }, {
        "id": 8045,
        "name": "七村社区",
        "capacity": 30,
        "availBike": 12,
        "address": "广东省珠海市香洲区淇澳大桥",
        "lat": "22.393898",
        "lng": "113.623920"
    }, {
        "id": 163,
        "name": "德兴火锅",
        "capacity": 20,
        "availBike": 12,
        "address": "福建省龙岩市武平县",
        "lat": "25.106939",
        "lng": "116.139160"
    }, {
        "id": 80,
        "name": "雍景园东门",
        "capacity": 30,
        "availBike": 15,
        "address": "福建省龙岩市上杭县",
        "lat": "25.389494",
        "lng": "116.494825"
    }, {
        "id": 1362,
        "name": "临海中机建设",
        "capacity": 30,
        "availBike": 19,
        "address": "广东省河源市龙川县",
        "lat": "24.382681",
        "lng": "115.525026"
    }, {
        "id": 2030,
        "name": "古四村委会",
        "capacity": 20,
        "availBike": 11,
        "address": "福建省龙岩市长汀县X651",
        "lat": "25.582812",
        "lng": "116.376110"
    }, {
        "id": 144,
        "name": "三溪村北",
        "capacity": 20,
        "availBike": 0,
        "address": "广东省惠州市博罗县",
        "lat": "23.254882",
        "lng": "114.234490"
    }, {
        "id": 2043,
        "name": "海洲初级中学",
        "capacity": 30,
        "availBike": 15,
        "address": "广东省河源市龙川县",
        "lat": "24.716349",
        "lng": "115.395596"
    }, {
        "id": 160,
        "name": "中山一桥下",
        "capacity": 20,
        "availBike": 11,
        "address": "广东省中山市中山市市辖区",
        "lat": "22.669938",
        "lng": "113.529486"
    }, {
        "id": 37,
        "name": "市政府东",
        "capacity": 22,
        "availBike": 2,
        "address": "广东省梅州市平远县",
        "lat": "24.849470",
        "lng": "115.909880"
    }, {
        "id": 1127,
        "name": "平东小学",
        "capacity": 16,
        "availBike": 11,
        "address": "福建省龙岩市连城县",
        "lat": "25.342028",
        "lng": "116.666100"
    }, {
        "id": 1168,
        "name": "雅岗村路口",
        "capacity": 16,
        "availBike": 13,
        "address": "广东省东莞市东莞市市辖区",
        "lat": "22.861923",
        "lng": "114.010510"
    }, {
        "id": 265,
        "name": "创世纪汽车公司",
        "capacity": 30,
        "availBike": 17,
        "address": "广东省河源市龙川县",
        "lat": "24.174369",
        "lng": "115.107370"
    }, {
        "id": 2013,
        "name": "照明灯饰采购中心",
        "capacity": 24,
        "availBike": 13,
        "address": "福建省龙岩市武平县S309",
        "lat": "25.160463",
        "lng": "115.942800"
    }, {
        "id": 1337,
        "name": "二洲",
        "capacity": 20,
        "availBike": 12,
        "address": "广东省河源市东源县",
        "lat": "23.856348",
        "lng": "114.894320"
    }, {
        "id": 197,
        "name": "树木园北门",
        "capacity": 40,
        "availBike": 12,
        "address": "福建省龙岩市上杭县",
        "lat": "25.332495",
        "lng": "116.434230"
    }, {
        "id": 1096,
        "name": "古鹤村祠堂",
        "capacity": 16,
        "availBike": 2,
        "address": "广东省中山市中山市市辖区",
        "lat": "22.428554",
        "lng": "113.592760"
    }, {
        "id": 1322,
        "name": "开发区医院",
        "capacity": 30,
        "availBike": 15,
        "address": "福建省龙岩市武平县",
        "lat": "24.977246",
        "lng": "116.091520"
    }, {
        "id": 1014,
        "name": "雅湖居公交站北行",
        "capacity": 20,
        "availBike": 9,
        "address": "福建省龙岩市上杭县X632",
        "lat": "25.198568",
        "lng": "116.510200"
    }, {
        "id": 1104,
        "name": "鸦岗市场",
        "capacity": 20,
        "availBike": 14,
        "address": "福建省龙岩市连城县",
        "lat": "25.502835",
        "lng": "116.861246"
    }, {
        "id": 1176,
        "name": "雅居乐一期广场",
        "capacity": 18,
        "availBike": 9,
        "address": "广东省河源市龙川县Y159",
        "lat": "24.000517",
        "lng": "115.214190"
    }, {
        "id": 28,
        "name": "大东裕大厦",
        "capacity": 40,
        "availBike": 18,
        "address": "广东省梅州市兴宁市",
        "lat": "24.554382",
        "lng": "115.610795"
    }, {
        "id": 256,
        "name": "新中医院东",
        "capacity": 20,
        "availBike": 14,
        "address": "广东省东莞市东莞市市辖区X195(石洲大道)",
        "lat": "23.107065",
        "lng": "113.967670"
    }, {
        "id": 1190,
        "name": "塘撖布匹新市场",
        "capacity": 16,
        "availBike": 11,
        "address": "福建省龙岩市上杭县",
        "lat": "24.991237",
        "lng": "116.323020"
    }, {
        "id": 8031,
        "name": "坦洲中心市场",
        "capacity": 32,
        "availBike": 10,
        "address": "广东省深圳市宝安区G15(沈海高速公路)",
        "lat": "22.661308",
        "lng": "113.897520"
    }, {
        "id": 1307,
        "name": "窈窕",
        "capacity": 20,
        "availBike": 3,
        "address": "福建省龙岩市连城县",
        "lat": "25.822713",
        "lng": "116.997900"
    }, {
        "id": 1170,
        "name": "凯悦名门",
        "capacity": 20,
        "availBike": 11,
        "address": "广东省河源市龙川县Y813",
        "lat": "24.264218",
        "lng": "115.497460"
    }, {
        "id": 2045,
        "name": "世纪信佳",
        "capacity": 20,
        "availBike": 8,
        "address": "广东省惠州市龙门县S244",
        "lat": "23.704197",
        "lng": "114.306825"
    }, {
        "id": 260,
        "name": "大信新家园",
        "capacity": 30,
        "availBike": 20,
        "address": "广东省东莞市东莞市市辖区解放路",
        "lat": "22.829781",
        "lng": "113.669970"
    }, {
        "id": 1028,
        "name": "百乐城",
        "capacity": 26,
        "availBike": 11,
        "address": "广东省东莞市东莞市市辖区泓富三路",
        "lat": "22.935771",
        "lng": "114.060014"
    }, {
        "id": 29,
        "name": "交警支队",
        "capacity": 30,
        "availBike": 22,
        "address": "广东省梅州市平远县S331",
        "lat": "24.897983",
        "lng": "115.984285"
    }, {
        "id": 1205,
        "name": "金红云花园销售部",
        "capacity": 18,
        "availBike": 9,
        "address": "广东省河源市东源县",
        "lat": "23.788318",
        "lng": "115.006225"
    }, {
        "id": 44,
        "name": "置禾超市",
        "capacity": 24,
        "availBike": 22,
        "address": "广东省梅州市平远县",
        "lat": "24.836315",
        "lng": "115.903760"
    }, {
        "id": 151,
        "name": "西区政府",
        "capacity": 30,
        "availBike": 11,
        "address": "广东省河源市和平县X173",
        "lat": "24.188693",
        "lng": "115.156570"
    }, {
        "id": 8033,
        "name": "壹加壹(坦神路)",
        "capacity": 40,
        "availBike": 18,
        "address": "福建省龙岩市武平县",
        "lat": "24.837510",
        "lng": "116.246180"
    }, {
        "id": 1120,
        "name": "平南林堡公园",
        "capacity": 18,
        "availBike": 6,
        "address": "广东省深圳市宝安区下辇路",
        "lat": "22.793035",
        "lng": "113.907975"
    }, {
        "id": 190,
        "name": "延龄路",
        "capacity": 21,
        "availBike": 11,
        "address": "福建省龙岩市上杭县",
        "lat": "25.362572",
        "lng": "116.434150"
    }, {
        "id": 1030,
        "name": "雅湖居公交站南行",
        "capacity": 28,
        "availBike": 10,
        "address": "广东省惠州市博罗县",
        "lat": "23.146907",
        "lng": "114.296870"
    }, {
        "id": 118,
        "name": "北区公园",
        "capacity": 40,
        "availBike": 16,
        "address": "福建省龙岩市连城县",
        "lat": "25.772274",
        "lng": "116.878786"
    }, {
        "id": 8039,
        "name": "中澳景湖居",
        "capacity": 28,
        "availBike": 12,
        "address": "广东省河源市紫金县Y335",
        "lat": "23.548483",
        "lng": "114.871060"
    }, {
        "id": 8,
        "name": "新村市场",
        "capacity": 22,
        "availBike": 12,
        "address": "福建省龙岩市武平县",
        "lat": "25.024065",
        "lng": "116.119106"
    }, {
        "id": 1199,
        "name": "茅湾村委",
        "capacity": 16,
        "availBike": 6,
        "address": "广东省梅州市兴宁市Y152",
        "lat": "24.461454",
        "lng": "115.761860"
    }, {
        "id": 67,
        "name": "华苑大街路口",
        "capacity": 32,
        "availBike": 7,
        "address": "广东省梅州市平远县X036",
        "lat": "24.831998",
        "lng": "115.881890"
    }, {
        "id": 8043,
        "name": "七星奥林园",
        "capacity": 30,
        "availBike": 9,
        "address": "广东省河源市紫金县",
        "lat": "23.633014",
        "lng": "114.950380"
    }, {
        "id": 1095,
        "name": "古鹤市场",
        "capacity": 16,
        "availBike": 8,
        "address": "广东省河源市东源县",
        "lat": "23.861061",
        "lng": "115.132336"
    }, {
        "id": 1346,
        "name": "临海工业园宿舍区",
        "capacity": 30,
        "availBike": 1,
        "address": "福建省龙岩市上杭县G205",
        "lat": "25.339047",
        "lng": "116.597220"
    }, {
        "id": 1356,
        "name": "六和社区居委会",
        "capacity": 20,
        "availBike": 13,
        "address": "福建省龙岩市连城县",
        "lat": "25.763119",
        "lng": "116.941565"
    }, {
        "id": 166,
        "name": "民科东路口",
        "capacity": 20,
        "availBike": 11,
        "address": "福建省龙岩市连城县",
        "lat": "25.661907",
        "lng": "116.738335"
    }, {
        "id": 424,
        "name": "蓝波湾小区东门",
        "capacity": 40,
        "availBike": 7,
        "address": "广东省河源市东源县",
        "lat": "23.905075",
        "lng": "114.861590"
    }, {
        "id": 1348,
        "name": "临海广新海工",
        "capacity": 30,
        "availBike": 11,
        "address": "广东省广州市南沙区",
        "lat": "22.645757",
        "lng": "113.705405"
    }, {
        "id": 19,
        "name": "永怡花园市场",
        "capacity": 20,
        "availBike": 7,
        "address": "广东省惠州市博罗县",
        "lat": "23.553872",
        "lng": "114.505870"
    }, {
        "id": 181,
        "name": "白水井大街西",
        "capacity": 18,
        "availBike": 12,
        "address": "广东省惠州市博罗县",
        "lat": "23.569270",
        "lng": "114.512160"
    }, {
        "id": 1357,
        "name": "中山路赐福山庄",
        "capacity": 30,
        "availBike": 12,
        "address": "福建省龙岩市上杭县",
        "lat": "25.347887",
        "lng": "116.437920"
    }, {
        "id": 1189,
        "name": "三鑫中学",
        "capacity": 16,
        "availBike": 9,
        "address": "广东省河源市紫金县Y371",
        "lat": "23.638929",
        "lng": "114.827600"
    }, {
        "id": 1110,
        "name": "斑鸠埔村口",
        "capacity": 12,
        "availBike": 6,
        "address": "广东省梅州市兴宁市Y454",
        "lat": "24.402165",
        "lng": "115.641660"
    }, {
        "id": 2036,
        "name": "古二村委会",
        "capacity": 16,
        "availBike": 7,
        "address": "江西省赣州市寻乌县G35(济广高速公路)",
        "lat": "25.012717",
        "lng": "115.755560"
    }, {
        "id": 1029,
        "name": "伟立厂",
        "capacity": 30,
        "availBike": 12,
        "address": "广东省梅州市蕉岭县",
        "lat": "24.841406",
        "lng": "116.099510"
    }, {
        "id": 1188,
        "name": "曼秀雷敦",
        "capacity": 16,
        "availBike": 3,
        "address": "广东省东莞市东莞市市辖区YE60",
        "lat": "23.018339",
        "lng": "114.139530"
    }, {
        "id": 1309,
        "name": "高科技富拉司特",
        "capacity": 20,
        "availBike": 7,
        "address": "广东省河源市源城区",
        "lat": "23.698683",
        "lng": "114.659175"
    }, {
        "id": 124,
        "name": "南安路西",
        "capacity": 30,
        "availBike": 8,
        "address": "福建省龙岩市武平县",
        "lat": "25.130494",
        "lng": "116.189434"
    }, {
        "id": 1601,
        "name": "港口镇政府",
        "capacity": 16,
        "availBike": 8,
        "address": "广东省河源市龙川县Y119",
        "lat": "24.296097",
        "lng": "115.229050"
    }, {
        "id": 79,
        "name": "体育场北",
        "capacity": 30,
        "availBike": 12,
        "address": "福建省龙岩市上杭县",
        "lat": "25.434807",
        "lng": "116.542180"
    }, {
        "id": 474,
        "name": "火炬公交枢纽站",
        "capacity": 20,
        "availBike": 9,
        "address": "广东省梅州市兴宁市S226",
        "lat": "24.512398",
        "lng": "115.604286"
    }, {
        "id": 1043,
        "name": "雅岗村路口",
        "capacity": 16,
        "availBike": 7,
        "address": "广东省河源市紫金县Y035",
        "lat": "23.501927",
        "lng": "114.700590"
    }, {
        "id": 2029,
        "name": "六坊村委",
        "capacity": 20,
        "availBike": 14,
        "address": "广东省惠州市龙门县Y188",
        "lat": "23.669816",
        "lng": "114.316905"
    }, {
        "id": 200,
        "name": "交通执法局",
        "capacity": 20,
        "availBike": 6,
        "address": "江西省赣州市寻乌县",
        "lat": "24.669517",
        "lng": "115.706650"
    }, {
        "id": 78,
        "name": "路易酒店",
        "capacity": 38,
        "availBike": 21,
        "address": "福建省三明市永安市",
        "lat": "25.930806",
        "lng": "117.075230"
    }, {
        "id": 1019,
        "name": "平东商业街路口",
        "capacity": 24,
        "availBike": 11,
        "address": "广东省东莞市东莞市市辖区X232(公常路)",
        "lat": "22.859831",
        "lng": "113.987615"
    }, {
        "id": 2047,
        "name": "海洲医院",
        "capacity": 20,
        "availBike": 9,
        "address": "广东省河源市龙川县",
        "lat": "24.665265",
        "lng": "115.332690"
    }, {
        "id": 8010,
        "name": "星洲花园",
        "capacity": 30,
        "availBike": 10,
        "address": "广东省河源市紫金县Y364",
        "lat": "23.661110",
        "lng": "114.954130"
    }, {
        "id": 269,
        "name": "蔷薇山庄",
        "capacity": 20,
        "availBike": 1,
        "address": "福建省三明市永安市",
        "lat": "25.870176",
        "lng": "117.017890"
    }, {
        "id": 1010,
        "name": "会展中心",
        "capacity": 12,
        "availBike": 7,
        "address": "广东省深圳市宝安区S3(广深沿江高速公路)",
        "lat": "22.676993",
        "lng": "113.784294"
    }, {
        "id": 1171,
        "name": "东城花园正门",
        "capacity": 22,
        "availBike": 14,
        "address": "广东省梅州市平远县Y124",
        "lat": "24.779377",
        "lng": "116.055510"
    }, {
        "id": 2207,
        "name": "海洲健身广场2",
        "capacity": 42,
        "availBike": 25,
        "address": "广东省广州市增城市S256",
        "lat": "23.220141",
        "lng": "113.871905"
    }, {
        "id": 1058,
        "name": "三乡车站",
        "capacity": 16,
        "availBike": 0,
        "address": "广东省河源市龙川县G25(长深高速公路)",
        "lat": "24.105696",
        "lng": "115.318760"
    }, {
        "id": 8019,
        "name": "坦洲理工学校",
        "capacity": 40,
        "availBike": 11,
        "address": "广东省惠州市博罗县",
        "lat": "23.252570",
        "lng": "114.523840"
    }, {
        "id": 1314,
        "name": "火炬职院实训楼",
        "capacity": 30,
        "availBike": 21,
        "address": "广东省河源市龙川县X178",
        "lat": "24.453254",
        "lng": "115.508920"
    }, {
        "id": 1324,
        "name": "江尾头市场",
        "capacity": 16,
        "availBike": 5,
        "address": "广东省东莞市东莞市市辖区联义路157号",
        "lat": "22.944815",
        "lng": "113.909640"
    }, {
        "id": 8023,
        "name": "坦洲旧市场",
        "capacity": 42,
        "availBike": 21,
        "address": "广东省梅州市兴宁市",
        "lat": "24.377360",
        "lng": "115.746320"
    }, {
        "id": 60,
        "name": "莲兴路口",
        "capacity": 24,
        "availBike": 12,
        "address": "广东省中山市中山市市辖区",
        "lat": "22.670987",
        "lng": "113.545405"
    }, {
        "id": 2031,
        "name": "古三壹加壹",
        "capacity": 40,
        "availBike": 18,
        "address": "福建省龙岩市长汀县",
        "lat": "25.711392",
        "lng": "116.510360"
    }, {
        "id": 1207,
        "name": "新桂山中学",
        "capacity": 30,
        "availBike": 19,
        "address": "广东省东莞市东莞市市辖区水围湖街",
        "lat": "22.956226",
        "lng": "114.061295"
    }, {
        "id": 1315,
        "name": "旺角市场",
        "capacity": 20,
        "availBike": 8,
        "address": "广东省惠州市博罗县",
        "lat": "23.404567",
        "lng": "114.380450"
    }, {
        "id": 1037,
        "name": "华丰桥",
        "capacity": 24,
        "availBike": 9,
        "address": "广东省惠州市博罗县G324(惠州大道)",
        "lat": "23.193140",
        "lng": "114.337000"
    }, {
        "id": 156,
        "name": "长洲牌坊",
        "capacity": 18,
        "availBike": 3,
        "address": "福建省龙岩市武平县S205",
        "lat": "25.052147",
        "lng": "116.087050"
    }, {
        "id": 8021,
        "name": "坦洲山公园",
        "capacity": 18,
        "availBike": 10,
        "address": "广东省河源市东源县",
        "lat": "23.805020",
        "lng": "115.125530"
    }, {
        "id": 1018,
        "name": "新盛世路口",
        "capacity": 26,
        "availBike": 11,
        "address": "广东省河源市龙川县",
        "lat": "24.303341",
        "lng": "115.543290"
    }, {
        "id": 1335,
        "name": "数贸大厦",
        "capacity": 20,
        "availBike": 15,
        "address": "广东省中山市中山市市辖区锦群路",
        "lat": "22.594612",
        "lng": "113.529730"
    }, {
        "id": 148,
        "name": "蓝波湾小区",
        "capacity": 30,
        "availBike": 16,
        "address": "广东省惠州市博罗县",
        "lat": "23.399499",
        "lng": "114.314960"
    }, {
        "id": 1308,
        "name": "纬创科技软件园",
        "capacity": 40,
        "availBike": 22,
        "address": "福建省龙岩市上杭县",
        "lat": "25.319694",
        "lng": "116.419630"
    }, {
        "id": 1052,
        "name": "雅居乐花园一期",
        "capacity": 20,
        "availBike": 11,
        "address": "广东省河源市紫金县",
        "lat": "23.580754",
        "lng": "114.760580"
    }, {
        "id": 8037,
        "name": "豪日酒店",
        "capacity": 30,
        "availBike": 7,
        "address": "福建省龙岩市武平县X642",
        "lat": "24.913105",
        "lng": "116.332520"
    }, {
        "id": 141,
        "name": "博览中心",
        "capacity": 20,
        "availBike": 15,
        "address": "广东省河源市龙川县S228",
        "lat": "24.303805",
        "lng": "115.356016"
    }, {
        "id": 1044,
        "name": "宝元大道北",
        "capacity": 14,
        "availBike": 8,
        "address": "福建省龙岩市上杭县G25(长深高速公路)",
        "lat": "25.173110",
        "lng": "116.451680"
    }, {
        "id": 1183,
        "name": "博爱中学",
        "capacity": 20,
        "availBike": 6,
        "address": "广东省惠州市惠城区YE50",
        "lat": "23.065051",
        "lng": "114.225790"
    }, {
        "id": 1106,
        "name": "泉眼卫生服务站",
        "capacity": 20,
        "availBike": 9,
        "address": "广东省梅州市平远县G206",
        "lat": "24.595289",
        "lng": "115.871814"
    }, {
        "id": 63,
        "name": "华柏路桂园路口",
        "capacity": 16,
        "availBike": 10,
        "address": "广东省河源市东源县",
        "lat": "23.834872",
        "lng": "114.801930"
    }, {
        "id": 1353,
        "name": "新佳能",
        "capacity": 30,
        "availBike": 12,
        "address": "广东省东莞市东莞市市辖区翠怡路",
        "lat": "22.818975",
        "lng": "113.813760"
    }, {
        "id": 1002,
        "name": "富和名都",
        "capacity": 20,
        "availBike": 11,
        "address": "福建省龙岩市连城县",
        "lat": "25.542925",
        "lng": "116.872956"
    }, {
        "id": 1046,
        "name": "雍陌市场",
        "capacity": 24,
        "availBike": 5,
        "address": "福建省龙岩市上杭县",
        "lat": "25.273312",
        "lng": "116.593450"
    }, {
        "id": 100,
        "name": "永胜数码广场",
        "capacity": 20,
        "availBike": 10,
        "address": "广东省惠州市博罗县",
        "lat": "23.516197",
        "lng": "114.443650"
    }, {
        "id": 330,
        "name": "大鳌溪新村",
        "capacity": 20,
        "availBike": 11,
        "address": "江西省赣州市寻乌县X401",
        "lat": "24.615599",
        "lng": "115.695950"
    }, {
        "id": 9,
        "name": "全球通公园东",
        "capacity": 30,
        "availBike": 21,
        "address": "广东省惠州市博罗县Y522(龙银路)",
        "lat": "23.131370",
        "lng": "114.081234"
    }, {
        "id": 1177,
        "name": "逸湖居",
        "capacity": 20,
        "availBike": 10,
        "address": "广东省珠海市香洲区",
        "lat": "22.404429",
        "lng": "113.511200"
    }, {
        "id": 2037,
        "name": "曹一公园1",
        "capacity": 40,
        "availBike": 0,
        "address": "广东省广州市番禺区",
        "lat": "22.958615",
        "lng": "113.549220"
    }, {
        "id": 2021,
        "name": "聚群购物广场",
        "capacity": 34,
        "availBike": 1,
        "address": "福建省龙岩市武平县",
        "lat": "25.345915",
        "lng": "116.116910"
    }, {
        "id": 2033,
        "name": "古三社区服务站",
        "capacity": 16,
        "availBike": 6,
        "address": "广东省河源市龙川县Y032",
        "lat": "24.720080",
        "lng": "115.438820"
    }, {
        "id": 47,
        "name": "名树园",
        "capacity": 30,
        "availBike": 18,
        "address": "福建省龙岩市上杭县",
        "lat": "25.400420",
        "lng": "116.512660"
    }, {
        "id": 1065,
        "name": "水乡居公交站",
        "capacity": 22,
        "availBike": 8,
        "address": "广东省河源市龙川县Y777",
        "lat": "24.237614",
        "lng": "115.487010"
    }, {
        "id": 471,
        "name": "江陵东路",
        "capacity": 30,
        "availBike": 0,
        "address": "广东省河源市东源县",
        "lat": "23.797167",
        "lng": "114.828550"
    }, {
        "id": 1317,
        "name": "火炬职院",
        "capacity": 30,
        "availBike": 18,
        "address": "广东省河源市龙川县Y658",
        "lat": "24.252641",
        "lng": "115.293190"
    }, {
        "id": 1303,
        "name": "濠头牌坊",
        "capacity": 20,
        "availBike": 8,
        "address": "福建省龙岩市连城县G205",
        "lat": "25.653897",
        "lng": "116.801660"
    }, {
        "id": 192,
        "name": "朗晴假日东",
        "capacity": 20,
        "availBike": 0,
        "address": "广东省惠州市博罗县",
        "lat": "23.463246",
        "lng": "114.419160"
    }, {
        "id": 8005,
        "name": "青少年活动中心",
        "capacity": 28,
        "availBike": 12,
        "address": "广东省深圳市宝安区",
        "lat": "22.515022",
        "lng": "113.720890"
    }, {
        "id": 1045,
        "name": "交警大队",
        "capacity": 16,
        "availBike": 8,
        "address": "广东省河源市龙川县Y813",
        "lat": "24.278332",
        "lng": "115.491160"
    }, {
        "id": 390,
        "name": "蔷薇山庄西门",
        "capacity": 30,
        "availBike": 3,
        "address": "广东省东莞市东莞市市辖区金沙大道",
        "lat": "23.075724",
        "lng": "114.003000"
    }, {
        "id": 1364,
        "name": "卡西欧电子厂",
        "capacity": 20,
        "availBike": 12,
        "address": "福建省龙岩市连城县",
        "lat": "25.702992",
        "lng": "116.809440"
    }, {
        "id": 12,
        "name": "裕中大厦",
        "capacity": 40,
        "availBike": 14,
        "address": "广东省中山市中山市市辖区义仓路",
        "lat": "22.626195",
        "lng": "113.520640"
    }, {
        "id": 8001,
        "name": "坦洲医院",
        "capacity": 40,
        "availBike": 14,
        "address": "广东省河源市东源县",
        "lat": "23.802768",
        "lng": "115.115205"
    }, {
        "id": 1304,
        "name": "丽港城",
        "capacity": 20,
        "availBike": 8,
        "address": "广东省广州市南沙区",
        "lat": "22.724535",
        "lng": "113.644810"
    }, {
        "id": 111,
        "name": "东明花园",
        "capacity": 20,
        "availBike": 4,
        "address": "福建省龙岩市连城县",
        "lat": "25.735943",
        "lng": "116.832510"
    }, {
        "id": 1902,
        "name": "水上公园",
        "capacity": 40,
        "availBike": 23,
        "address": "广东省惠州市龙门县",
        "lat": "23.547254",
        "lng": "114.198360"
    }, {
        "id": 36,
        "name": "市政府西",
        "capacity": 30,
        "availBike": 13,
        "address": "广东省河源市东源县X154",
        "lat": "23.772530",
        "lng": "114.746440"
    }, {
        "id": 1178,
        "name": "新圩派出所",
        "capacity": 16,
        "availBike": 5,
        "address": "福建省龙岩市连城县",
        "lat": "25.298765",
        "lng": "116.672320"
    }, {
        "id": 1360,
        "name": "火炬区太阳城",
        "capacity": 50,
        "availBike": 22,
        "address": "",
        "lat": "24.291027",
        "lng": "135.365650"
    }, {
        "id": 1,
        "name": "起湾居委会",
        "capacity": 18,
        "availBike": 8,
        "address": "广东省梅州市兴宁市S226",
        "lat": "24.564114",
        "lng": "115.592970"
    }, {
        "id": 108,
        "name": "岐乐花园",
        "capacity": 30,
        "availBike": 17,
        "address": "广东省梅州市平远县X040",
        "lat": "24.814120",
        "lng": "115.853410"
    }, {
        "id": 1191,
        "name": "东安居",
        "capacity": 20,
        "availBike": 5,
        "address": "广东省中山市中山市市辖区",
        "lat": "22.497249",
        "lng": "113.593650"
    }, {
        "id": 1197,
        "name": "天保驾校",
        "capacity": 20,
        "availBike": 12,
        "address": "福建省龙岩市上杭县G25(长深高速公路)",
        "lat": "25.059542",
        "lng": "116.338900"
    }, {
        "id": 1113,
        "name": "泉林山庄",
        "capacity": 20,
        "availBike": 6,
        "address": "广东省梅州市平远县X036",
        "lat": "24.699903",
        "lng": "115.957310"
    }, {
        "id": 1316,
        "name": "逸港花园",
        "capacity": 20,
        "availBike": 7,
        "address": "广东省河源市东源县",
        "lat": "23.863683",
        "lng": "114.882830"
    }, {
        "id": 2011,
        "name": "乐丰花园",
        "capacity": 30,
        "availBike": 17,
        "address": "福建省龙岩市长汀县",
        "lat": "25.705266",
        "lng": "116.518035"
    }, {
        "id": 142,
        "name": "博览中心南门",
        "capacity": 20,
        "availBike": 7,
        "address": "广东省惠州市博罗县Y586",
        "lat": "23.320093",
        "lng": "114.299574"
    }, {
        "id": 8009,
        "name": "锦绣商业中心",
        "capacity": 28,
        "availBike": 10,
        "address": "广东省珠海市香洲区",
        "lat": "22.327617",
        "lng": "113.513200"
    }, {
        "id": 1020,
        "name": "金谷路与岭南路交",
        "capacity": 14,
        "availBike": 8,
        "address": "福建省龙岩市连城县",
        "lat": "25.382284",
        "lng": "116.707530"
    }, {
        "id": 68,
        "name": "松苑壹加壹",
        "capacity": 24,
        "availBike": 18,
        "address": "广东省梅州市平远县",
        "lat": "24.861646",
        "lng": "115.917190"
    }, {
        "id": 66,
        "name": "老干中心",
        "capacity": 24,
        "availBike": 7,
        "address": "广东省河源市龙川县",
        "lat": "24.120223",
        "lng": "115.110780"
    }, {
        "id": 2950,
        "name": "城轨古镇站2",
        "capacity": 34,
        "availBike": 10,
        "address": "广东省河源市东源县",
        "lat": "23.931204",
        "lng": "114.651480"
    }, {
        "id": 2001,
        "name": "灯都会展中心",
        "capacity": 40,
        "availBike": 23,
        "address": "福建省三明市清流县X792",
        "lat": "26.002236",
        "lng": "116.871155"
    }, {
        "id": 8024,
        "name": "宏景园",
        "capacity": 22,
        "availBike": 11,
        "address": "福建省龙岩市连城县",
        "lat": "25.558342",
        "lng": "117.025564"
    }, {
        "id": 205,
        "name": "万科城市风景",
        "capacity": 40,
        "availBike": 16,
        "address": "广东省河源市东源县",
        "lat": "24.077829",
        "lng": "115.068210"
    }, {
        "id": 1013,
        "name": "政府西门",
        "capacity": 30,
        "availBike": 12,
        "address": "福建省龙岩市上杭县",
        "lat": "25.091233",
        "lng": "116.388835"
    }, {
        "id": 1602,
        "name": "港口壹加壹",
        "capacity": 16,
        "availBike": 7,
        "address": "广东省广州市南沙区G9411(莞佛高速公路)",
        "lat": "22.795750",
        "lng": "113.615030"
    }, {
        "id": 1342,
        "name": "得能湖西门",
        "capacity": 20,
        "availBike": 12,
        "address": "广东省惠州市博罗县",
        "lat": "23.316777",
        "lng": "114.297590"
    }, {
        "id": 162,
        "name": "金钻酒店",
        "capacity": 20,
        "availBike": 4,
        "address": "广东省中山市中山市市辖区东胜路",
        "lat": "22.636273",
        "lng": "113.484680"
    }, {
        "id": 1111,
        "name": "泉林路口",
        "capacity": 16,
        "availBike": 8,
        "address": "广东省河源市东源县",
        "lat": "23.836420",
        "lng": "115.023230"
    }, {
        "id": 143,
        "name": "小鳌溪驿站",
        "capacity": 30,
        "availBike": 11,
        "address": "广东省东莞市东莞市市辖区树安路",
        "lat": "22.811540",
        "lng": "113.752240"
    }, {
        "id": 1126,
        "name": "新盛世花园",
        "capacity": 26,
        "availBike": 9,
        "address": "广东省梅州市平远县Y151",
        "lat": "24.546797",
        "lng": "115.808340"
    }, {
        "id": 2038,
        "name": "曹步派出所",
        "capacity": 32,
        "availBike": 18,
        "address": "广东省广州市番禺区S105(南沙港快速路)",
        "lat": "22.853546",
        "lng": "113.445000"
    }, {
        "id": 58,
        "name": "石岐职中",
        "capacity": 20,
        "availBike": 0,
        "address": "福建省龙岩市上杭县",
        "lat": "25.256603",
        "lng": "116.322105"
    }, {
        "id": 173,
        "name": "东区社保分局",
        "capacity": 20,
        "availBike": 8,
        "address": "广东省东莞市东莞市市辖区金湾路",
        "lat": "22.779851",
        "lng": "113.673330"
    }, {
        "id": 1069,
        "name": "三乡医院",
        "capacity": 18,
        "availBike": 15,
        "address": "广东省深圳市宝安区西田路",
        "lat": "22.806353",
        "lng": "113.911846"
    }, {
        "id": 1021,
        "name": "东峻华庭售楼中心",
        "capacity": 16,
        "availBike": 7,
        "address": "广东省河源市龙川县",
        "lat": "24.290044",
        "lng": "115.531120"
    }, {
        "id": 139,
        "name": "中山党校",
        "capacity": 30,
        "availBike": 2,
        "address": "广东省东莞市东莞市市辖区骏达中路13号",
        "lat": "22.993402",
        "lng": "113.939610"
    }, {
        "id": 2006,
        "name": "天宏物流",
        "capacity": 26,
        "availBike": 17,
        "address": "福建省龙岩市长汀县",
        "lat": "25.692447",
        "lng": "116.491130"
    }, {
        "id": 1011,
        "name": "雅居乐新城璟峰",
        "capacity": 20,
        "availBike": 10,
        "address": "广东省惠州市博罗县",
        "lat": "23.258412",
        "lng": "114.414180"
    }, {
        "id": 161,
        "name": "东明花园南",
        "capacity": 30,
        "availBike": 15,
        "address": "广东省梅州市平远县",
        "lat": "24.914051",
        "lng": "115.945870"
    }, {
        "id": 2039,
        "name": "曹三村委会",
        "capacity": 12,
        "availBike": 6,
        "address": "广东省河源市和平县",
        "lat": "24.502195",
        "lng": "115.228080"
    }, {
        "id": 1003,
        "name": "五步e家",
        "capacity": 20,
        "availBike": 1,
        "address": "广东省惠州市博罗县",
        "lat": "23.490359",
        "lng": "114.654830"
    }, {
        "id": 1206,
        "name": "雅居乐新城都会北",
        "capacity": 16,
        "availBike": 8,
        "address": "广东省河源市东源县",
        "lat": "23.787157",
        "lng": "114.982490"
    }, {
        "id": 8034,
        "name": "杰士美广场",
        "capacity": 30,
        "availBike": 7,
        "address": "广东省梅州市梅县Y259",
        "lat": "24.473123",
        "lng": "115.851500"
    }, {
        "id": 102,
        "name": "光明桥",
        "capacity": 20,
        "availBike": 8,
        "address": "福建省龙岩市上杭县",
        "lat": "25.311496",
        "lng": "116.371000"
    }, {
        "id": 1051,
        "name": "小琅环公园",
        "capacity": 40,
        "availBike": 16,
        "address": "广东省惠州市惠城区",
        "lat": "23.042070",
        "lng": "114.155680"
    }, {
        "id": 1352,
        "name": "健康路南",
        "capacity": 20,
        "availBike": 7,
        "address": "广东省惠州市博罗县X216(龙园大道)",
        "lat": "23.096413",
        "lng": "114.101460"
    }, {
        "id": 1319,
        "name": "张家边电影院",
        "capacity": 30,
        "availBike": 12,
        "address": "广东省广州市南沙区红安路",
        "lat": "22.647705",
        "lng": "113.571670"
    }, {
        "id": 8004,
        "name": "实验中学",
        "capacity": 40,
        "availBike": 13,
        "address": "广东省河源市东源县",
        "lat": "23.799976",
        "lng": "115.105500"
    }, {
        "id": 334,
        "name": "竹秀园居委会",
        "capacity": 20,
        "availBike": 13,
        "address": "福建省龙岩市连城县G205",
        "lat": "25.598131",
        "lng": "116.716500"
    }, {
        "id": 8050,
        "name": "坦洲联一小学",
        "capacity": 32,
        "availBike": 13,
        "address": "广东省深圳市宝安区",
        "lat": "22.764850",
        "lng": "113.996924"
    }, {
        "id": 1147,
        "name": "古鹤福群路小公园",
        "capacity": 20,
        "availBike": 10,
        "address": "广东省河源市东源县",
        "lat": "23.778338",
        "lng": "115.044660"
    }, {
        "id": 446,
        "name": "蓝波水岸",
        "capacity": 30,
        "availBike": 17,
        "address": "福建省龙岩市连城县G25(长深高速公路)",
        "lat": "25.665122",
        "lng": "116.758260"
    }, {
        "id": 1908,
        "name": "民安市场",
        "capacity": 30,
        "availBike": 17,
        "address": "广东省惠州市龙门县Y154",
        "lat": "23.593365",
        "lng": "114.217650"
    }, {
        "id": 1313,
        "name": "中山港一加一",
        "capacity": 36,
        "availBike": 21,
        "address": "广东省惠州市博罗县S244",
        "lat": "23.342163",
        "lng": "114.307070"
    }, {
        "id": 86,
        "name": "中山纪念堂",
        "capacity": 30,
        "availBike": 21,
        "address": "福建省龙岩市上杭县G76(厦蓉高速公路)",
        "lat": "25.441162",
        "lng": "116.524290"
    }, {
        "id": 206,
        "name": "公路局养征所",
        "capacity": 22,
        "availBike": 8,
        "address": "广东省河源市源城区G25(长深高速公路)",
        "lat": "23.704305",
        "lng": "114.665956"
    }, {
        "id": 1097,
        "name": "华财古玩城",
        "capacity": 26,
        "availBike": 17,
        "address": "广东省惠州市惠城区X203",
        "lat": "23.388914",
        "lng": "114.628260"
    }, {
        "id": 150,
        "name": "愉翠雅园",
        "capacity": 20,
        "availBike": 7,
        "address": "广东省河源市和平县",
        "lat": "24.209333",
        "lng": "115.178190"
    }, {
        "id": 1907,
        "name": "将军市场",
        "capacity": 40,
        "availBike": 24,
        "address": "广东省河源市东源县X181",
        "lat": "24.047294",
        "lng": "114.756960"
    }, {
        "id": 1048,
        "name": "谷都派出所对面",
        "capacity": 12,
        "availBike": 8,
        "address": "福建省龙岩市武平县",
        "lat": "25.009842",
        "lng": "116.274570"
    }, {
        "id": 17,
        "name": "一中南",
        "capacity": 40,
        "availBike": 25,
        "address": "江西省赣州市寻乌县X401",
        "lat": "24.615792",
        "lng": "115.691280"
    }, {
        "id": 382,
        "name": "紫马岭公园南门",
        "capacity": 30,
        "availBike": 23,
        "address": "福建省龙岩市连城县",
        "lat": "25.519262",
        "lng": "116.663680"
    }, {
        "id": 133,
        "name": "东区防护所",
        "capacity": 24,
        "availBike": 12,
        "address": "广东省惠州市博罗县S244",
        "lat": "23.325435",
        "lng": "114.276060"
    }, {
        "id": 270,
        "name": "职业技术学院",
        "capacity": 40,
        "availBike": 28,
        "address": "广东省东莞市东莞市市辖区",
        "lat": "22.744361",
        "lng": "113.685200"
    }, {
        "id": 1359,
        "name": "健康花城",
        "capacity": 30,
        "availBike": 18,
        "address": "广东省东莞市东莞市市辖区大进路",
        "lat": "23.008534",
        "lng": "113.915970"
    }, {
        "id": 8003,
        "name": "市民广场南",
        "capacity": 30,
        "availBike": 15,
        "address": "广东省河源市龙川县",
        "lat": "24.086683",
        "lng": "115.416640"
    }, {
        "id": 267,
        "name": "西区医院",
        "capacity": 29,
        "availBike": 11,
        "address": "广东省惠州市博罗县Y445",
        "lat": "23.427858",
        "lng": "114.285510"
    }, {
        "id": 384,
        "name": "城管局直属分局",
        "capacity": 20,
        "availBike": 13,
        "address": "广东省东莞市东莞市市辖区新丰路52",
        "lat": "22.855306",
        "lng": "113.744990"
    }, {
        "id": 1328,
        "name": "行政服务中心",
        "capacity": 30,
        "availBike": 15,
        "address": "福建省龙岩市上杭县",
        "lat": "25.316680",
        "lng": "116.453240"
    }, {
        "id": 26,
        "name": "城市客栈",
        "capacity": 24,
        "availBike": 13,
        "address": "广东省广州市南沙区龙穴大道北",
        "lat": "22.700260",
        "lng": "113.603600"
    }, {
        "id": 138,
        "name": "东区办事处",
        "capacity": 24,
        "availBike": 9,
        "address": "广东省河源市龙川县",
        "lat": "24.382464",
        "lng": "115.428385"
    }, {
        "id": 379,
        "name": "中海翠林",
        "capacity": 40,
        "availBike": 13,
        "address": "广东省中山市中山市市辖区新平路",
        "lat": "22.659178",
        "lng": "113.514566"
    }, {
        "id": 189,
        "name": "西区公安分局",
        "capacity": 24,
        "availBike": 11,
        "address": "福建省龙岩市武平县",
        "lat": "24.938132",
        "lng": "115.953365"
    }, {
        "id": 2007,
        "name": "海洲健身广场1",
        "capacity": 18,
        "availBike": 14,
        "address": "福建省龙岩市连城县",
        "lat": "25.913810",
        "lng": "116.691190"
    }, {
        "id": 72,
        "name": "石岐沃尔玛",
        "capacity": 24,
        "availBike": 8,
        "address": "广东省东莞市东莞市市辖区大进路",
        "lat": "23.010009",
        "lng": "113.916020"
    }, {
        "id": 916,
        "name": "市一中北门",
        "capacity": 30,
        "availBike": 15,
        "address": "福建省龙岩市连城县",
        "lat": "25.484083",
        "lng": "116.623530"
    }, {
        "id": 8017,
        "name": "公安(教工)宿舍",
        "capacity": 30,
        "availBike": 12,
        "address": "广东省东莞市东莞市市辖区",
        "lat": "22.907383",
        "lng": "114.155100"
    }, {
        "id": 1339,
        "name": "健康路中",
        "capacity": 20,
        "availBike": 11,
        "address": "福建省龙岩市上杭县G205",
        "lat": "25.306914",
        "lng": "116.483810"
    }, {
        "id": 73,
        "name": "中银大厦",
        "capacity": 30,
        "availBike": 13,
        "address": "广东省河源市东源县",
        "lat": "24.002582",
        "lng": "114.992230"
    }, {
        "id": 11,
        "name": "竹苑壹加壹",
        "capacity": 40,
        "availBike": 33,
        "address": "广东省河源市东源县",
        "lat": "23.868258",
        "lng": "114.856830"
    }, {
        "id": 52,
        "name": "博爱医院",
        "capacity": 40,
        "availBike": 24,
        "address": "广东省惠州市博罗县X217",
        "lat": "23.239562",
        "lng": "114.191066"
    }, {
        "id": 184,
        "name": "下披头",
        "capacity": 30,
        "availBike": 16,
        "address": "广东省河源市龙川县Y375",
        "lat": "24.420079",
        "lng": "115.476560"
    }, {
        "id": 34,
        "name": "半山翠苑",
        "capacity": 20,
        "availBike": 18,
        "address": "广东省河源市源城区河中路",
        "lat": "23.728689",
        "lng": "114.696424"
    }, {
        "id": 1604,
        "name": "美景康城",
        "capacity": 16,
        "availBike": 6,
        "address": "广东省中山市中山市市辖区美景东路6",
        "lat": "22.580053",
        "lng": "113.397624"
    }, {
        "id": 1135,
        "name": "白石社区服务中心",
        "capacity": 20,
        "availBike": 12,
        "address": "福建省龙岩市武平县",
        "lat": "24.955341",
        "lng": "116.184100"
    }, {
        "id": 2040,
        "name": "明珠家园",
        "capacity": 30,
        "availBike": 21,
        "address": "广东省河源市和平县",
        "lat": "24.289393",
        "lng": "114.999126"
    }, {
        "id": 968,
        "name": "祈安苑东门2",
        "capacity": 46,
        "availBike": 26,
        "address": "广东省惠州市博罗县",
        "lat": "23.600643",
        "lng": "114.561320"
    }, {
        "id": 463,
        "name": "市公安局",
        "capacity": 28,
        "availBike": 18,
        "address": "广东省惠州市博罗县",
        "lat": "23.288004",
        "lng": "114.228965"
    }, {
        "id": 16,
        "name": "市一中",
        "capacity": 20,
        "availBike": 17,
        "address": "广东省河源市龙川县Y122",
        "lat": "24.222169",
        "lng": "115.262150"
    }, {
        "id": 1203,
        "name": "白石壹加壹",
        "capacity": 20,
        "availBike": 7,
        "address": "广东省中山市中山市市辖区X573(海城南路)",
        "lat": "22.527830",
        "lng": "113.583385"
    }, {
        "id": 8007,
        "name": "皇爵广场",
        "capacity": 30,
        "availBike": 12,
        "address": "广东省河源市龙川县",
        "lat": "24.102025",
        "lng": "115.429930"
    }, {
        "id": 1365,
        "name": "火炬益华百货",
        "capacity": 50,
        "availBike": 36,
        "address": "福建省龙岩市连城县",
        "lat": "25.759432",
        "lng": "116.945490"
    }, {
        "id": 1185,
        "name": "建设路东",
        "capacity": 16,
        "availBike": 3,
        "address": "福建省龙岩市连城县G25(长深高速公路)",
        "lat": "25.712607",
        "lng": "117.053090"
    }, {
        "id": 15,
        "name": "朗晴轩",
        "capacity": 24,
        "availBike": 10,
        "address": "广东省梅州市兴宁市X948",
        "lat": "24.524146",
        "lng": "115.582730"
    }, {
        "id": 396,
        "name": "六冲",
        "capacity": 26,
        "availBike": 17,
        "address": "广东省广州市南沙区石路上街",
        "lat": "22.789459",
        "lng": "113.581400"
    }, {
        "id": 1321,
        "name": "张家边市场",
        "capacity": 30,
        "availBike": 22,
        "address": "福建省龙岩市连城县",
        "lat": "25.783598",
        "lng": "116.960390"
    }, {
        "id": 1149,
        "name": "乌石下园仔",
        "capacity": 16,
        "availBike": 7,
        "address": "福建省龙岩市连城县",
        "lat": "25.577626",
        "lng": "116.898910"
    }, {
        "id": 1166,
        "name": "平南村路口",
        "capacity": 20,
        "availBike": 10,
        "address": "江西省赣州市寻乌县",
        "lat": "24.580832",
        "lng": "115.828335"
    }, {
        "id": 331,
        "name": "蓝波湾小学",
        "capacity": 20,
        "availBike": 8,
        "address": "广东省东莞市东莞市市辖区石大路坑口段46号",
        "lat": "22.996793",
        "lng": "113.879360"
    }, {
        "id": 361,
        "name": "侨中英才学校",
        "capacity": 30,
        "availBike": 12,
        "address": "广东省河源市龙川县X178",
        "lat": "24.432869",
        "lng": "115.456130"
    }, {
        "id": 1027,
        "name": "雅居乐钟楼",
        "capacity": 24,
        "availBike": 8,
        "address": "广东省梅州市平远县X036",
        "lat": "24.695943",
        "lng": "115.955240"
    }, {
        "id": 35,
        "name": "兴中园",
        "capacity": 30,
        "availBike": 22,
        "address": "广东省河源市东源县Y148",
        "lat": "23.797944",
        "lng": "114.770795"
    }, {
        "id": 123,
        "name": "逸仙湖公园",
        "capacity": 30,
        "availBike": 18,
        "address": "福建省龙岩市武平县",
        "lat": "25.166123",
        "lng": "116.218596"
    }, {
        "id": 459,
        "name": "南下市场",
        "capacity": 30,
        "availBike": 22,
        "address": "广东省河源市龙川县",
        "lat": "24.343693",
        "lng": "115.359780"
    }, {
        "id": 252,
        "name": "凯茵新城雅豪坊",
        "capacity": 16,
        "availBike": 5,
        "address": "广东省河源市龙川县",
        "lat": "24.086638",
        "lng": "115.159854"
    }, {
        "id": 2027,
        "name": "冈南新城批发市场",
        "capacity": 26,
        "availBike": 16,
        "address": "广东省惠州市龙门县",
        "lat": "23.402282",
        "lng": "114.042790"
    }, {
        "id": 8038,
        "name": "世纪银星商业广场",
        "capacity": 40,
        "availBike": 13,
        "address": "广东省惠州市惠城区YH17",
        "lat": "23.356831",
        "lng": "114.658130"
    }, {
        "id": 1016,
        "name": "东城艺墅",
        "capacity": 22,
        "availBike": 14,
        "address": "广东省惠州市博罗县",
        "lat": "23.255899",
        "lng": "114.423904"
    }, {
        "id": 1144,
        "name": "茅湾市场",
        "capacity": 20,
        "availBike": 16,
        "address": "广东省梅州市平远县",
        "lat": "24.499050",
        "lng": "115.805850"
    }, {
        "id": 1064,
        "name": "顺昌广场正门",
        "capacity": 24,
        "availBike": 8,
        "address": "广东省梅州市平远县Y124",
        "lat": "24.798126",
        "lng": "116.068230"
    }, {
        "id": 8035,
        "name": "民康路中",
        "capacity": 28,
        "availBike": 9,
        "address": "广东省惠州市惠城区新华路",
        "lat": "23.028102",
        "lng": "114.294220"
    }, {
        "id": 1201,
        "name": "泉眼路口",
        "capacity": 16,
        "availBike": 5,
        "address": "广东省梅州市蕉岭县",
        "lat": "24.851058",
        "lng": "116.143625"
    }, {
        "id": 65,
        "name": "华侨中学初中部",
        "capacity": 20,
        "availBike": 9,
        "address": "广东省河源市龙川县S228",
        "lat": "24.337204",
        "lng": "115.342544"
    }, {
        "id": 1090,
        "name": "巨龙古玩城西门",
        "capacity": 20,
        "availBike": 15,
        "address": "福建省龙岩市连城县",
        "lat": "25.344657",
        "lng": "116.697050"
    }, {
        "id": 1175,
        "name": "光后小学",
        "capacity": 16,
        "availBike": 14,
        "address": "福建省龙岩市连城县",
        "lat": "25.302150",
        "lng": "116.616580"
    }, {
        "id": 1332,
        "name": "加州阳光",
        "capacity": 20,
        "availBike": 11,
        "address": "广东省河源市东源县",
        "lat": "24.045324",
        "lng": "115.085196"
    }, {
        "id": 1363,
        "name": "临海兆鸿模具",
        "capacity": 30,
        "availBike": 22,
        "address": "江西省赣州市寻乌县",
        "lat": "24.565971",
        "lng": "115.778196"
    }, {
        "id": 4,
        "name": "竹苑小学",
        "capacity": 20,
        "availBike": 3,
        "address": "广东省东莞市东莞市市辖区G94(珠三角环线高速公路)",
        "lat": "22.961840",
        "lng": "113.876460"
    }, {
        "id": 1129,
        "name": "桥头村南宁街",
        "capacity": 10,
        "availBike": 5,
        "address": "广东省河源市东源县",
        "lat": "23.772820",
        "lng": "114.953020"
    }, {
        "id": 1904,
        "name": "穗西社区",
        "capacity": 40,
        "availBike": 24,
        "address": "广东省河源市东源县",
        "lat": "24.055451",
        "lng": "114.764980"
    }, {
        "id": 8008,
        "name": "坦洲公安分局",
        "capacity": 28,
        "availBike": 14,
        "address": "广东省惠州市惠城区C322",
        "lat": "23.181160",
        "lng": "114.437270"
    }, {
        "id": 8047,
        "name": "曙光路中",
        "capacity": 30,
        "availBike": 13,
        "address": "广东省东莞市东莞市市辖区",
        "lat": "22.767893",
        "lng": "114.017854"
    }, {
        "id": 266,
        "name": "沙朗果蔬市场",
        "capacity": 30,
        "availBike": 11,
        "address": "广东省河源市东源县",
        "lat": "23.999281",
        "lng": "114.907940"
    }, {
        "id": 132,
        "name": "紫茵庭园",
        "capacity": 20,
        "availBike": 6,
        "address": "广东省河源市源城区Y277(双下路)",
        "lat": "23.717384",
        "lng": "114.693670"
    }, {
        "id": 2937,
        "name": "曹一公园2",
        "capacity": 20,
        "availBike": 12,
        "address": "广东省惠州市龙门县",
        "lat": "23.423563",
        "lng": "114.091205"
    }, {
        "id": 8040,
        "name": "汇翠山庄",
        "capacity": 32,
        "availBike": 8,
        "address": "福建省龙岩市连城县",
        "lat": "25.463461",
        "lng": "116.935400"
    }, {
        "id": 1349,
        "name": "临海马安村路口",
        "capacity": 20,
        "availBike": 14,
        "address": "广东省河源市龙川县S339",
        "lat": "24.360731",
        "lng": "115.511910"
    }, {
        "id": 2023,
        "name": "鹏泰购物广场",
        "capacity": 28,
        "availBike": 0,
        "address": "广东省广州市番禺区X300",
        "lat": "22.827243",
        "lng": "113.404690"
    }, {
        "id": 8027,
        "name": "怡乐园",
        "capacity": 30,
        "availBike": 15,
        "address": "广东省梅州市兴宁市",
        "lat": "24.279711",
        "lng": "115.655796"
    }, {
        "id": 2026,
        "name": "利美购物广场",
        "capacity": 20,
        "availBike": 9,
        "address": "福建省三明市清流县",
        "lat": "25.961903",
        "lng": "116.810294"
    }, {
        "id": 2050,
        "name": "城轨古镇站",
        "capacity": 34,
        "availBike": 17,
        "address": "福建省三明市清流县",
        "lat": "25.911577",
        "lng": "116.785430"
    }, {
        "id": 64,
        "name": "威力村",
        "capacity": 22,
        "availBike": 11,
        "address": "福建省龙岩市武平县",
        "lat": "25.097713",
        "lng": "116.165460"
    }, {
        "id": 1341,
        "name": "城东客运站",
        "capacity": 30,
        "availBike": 18,
        "address": "福建省三明市永安市",
        "lat": "25.881135",
        "lng": "117.044876"
    }, {
        "id": 1159,
        "name": "三合村口",
        "capacity": 16,
        "availBike": 10,
        "address": "广东省梅州市平远县",
        "lat": "24.656290",
        "lng": "115.866280"
    }, {
        "id": 199,
        "name": "银星花园",
        "capacity": 20,
        "availBike": 7,
        "address": "广东省东莞市东莞市市辖区怀北路",
        "lat": "22.846367",
        "lng": "113.737560"
    }, {
        "id": 1049,
        "name": "英东亭",
        "capacity": 16,
        "availBike": 5,
        "address": "广东省河源市东源县Y051",
        "lat": "23.825325",
        "lng": "115.030755"
    }, {
        "id": 1361,
        "name": "明阳临海叶片厂",
        "capacity": 20,
        "availBike": 6,
        "address": "广东省河源市东源县",
        "lat": "23.854946",
        "lng": "115.015620"
    }, {
        "id": 8036,
        "name": "国际花城",
        "capacity": 30,
        "availBike": 11,
        "address": "广东省河源市龙川县",
        "lat": "24.005002",
        "lng": "115.321200"
    }, {
        "id": 168,
        "name": "中山北站",
        "capacity": 40,
        "availBike": 18,
        "address": "广东省河源市源城区迎客大道",
        "lat": "23.730510",
        "lng": "114.647356"
    }, {
        "id": 207,
        "name": "南区文化中心",
        "capacity": 30,
        "availBike": 12,
        "address": "广东省河源市源城区河紫路南19号",
        "lat": "23.736930",
        "lng": "114.706166"
    }, {
        "id": 107,
        "name": "宏基社区居委会",
        "capacity": 24,
        "availBike": 13,
        "address": "福建省龙岩市武平县",
        "lat": "25.123491",
        "lng": "116.189910"
    }, {
        "id": 473,
        "name": "康乐大道",
        "capacity": 30,
        "availBike": 0,
        "address": "广东省东莞市东莞市市辖区康丰路60号",
        "lat": "22.965819",
        "lng": "113.930420"
    }, {
        "id": 1059,
        "name": "宝元医院",
        "capacity": 16,
        "availBike": 6,
        "address": "福建省龙岩市上杭县",
        "lat": "25.293790",
        "lng": "116.592896"
    }, {
        "id": 1351,
        "name": "临海体育休闲广场",
        "capacity": 30,
        "availBike": 8,
        "address": "福建省龙岩市连城县",
        "lat": "25.573576",
        "lng": "116.823654"
    }, {
        "id": 178,
        "name": "长江北大桥",
        "capacity": 20,
        "availBike": 12,
        "address": "江西省赣州市寻乌县",
        "lat": "24.687594",
        "lng": "115.708470"
    }, {
        "id": 392,
        "name": "远洋城别墅",
        "capacity": 30,
        "availBike": 20,
        "address": "福建省龙岩市连城县G25(长深高速公路)",
        "lat": "25.573248",
        "lng": "116.729620"
    }, {
        "id": 76,
        "name": "恒信花园",
        "capacity": 22,
        "availBike": 7,
        "address": "广东省河源市东源县Y411",
        "lat": "24.059199",
        "lng": "115.050980"
    }, {
        "id": 1079,
        "name": "雍陌村委",
        "capacity": 12,
        "availBike": 7,
        "address": "广东省深圳市宝安区Y113(中心路)",
        "lat": "22.706412",
        "lng": "113.830110"
    }, {
        "id": 187,
        "name": "翠景湾",
        "capacity": 30,
        "availBike": 14,
        "address": "广东省惠州市博罗县Y414",
        "lat": "23.537876",
        "lng": "114.437800"
    }, {
        "id": 1130,
        "name": "白石市场",
        "capacity": 20,
        "availBike": 5,
        "address": "福建省龙岩市连城县",
        "lat": "25.450124",
        "lng": "116.734160"
    }, {
        "id": 172,
        "name": "沙岗墟北",
        "capacity": 30,
        "availBike": 13,
        "address": "广东省东莞市东莞市市辖区鸡翅岭路",
        "lat": "22.947890",
        "lng": "113.848300"
    }, {
        "id": 328,
        "name": "长江北联通",
        "capacity": 20,
        "availBike": 6,
        "address": "福建省龙岩市武平县",
        "lat": "24.998399",
        "lng": "116.087790"
    }, {
        "id": 2012,
        "name": "四海百货1",
        "capacity": 40,
        "availBike": 24,
        "address": "福建省龙岩市武平县",
        "lat": "25.309917",
        "lng": "116.098395"
    }, {
        "id": 33,
        "name": "假日广场1",
        "capacity": 30,
        "availBike": 28,
        "address": "广东省东莞市东莞市市辖区X245(石崇大道)",
        "lat": "23.084235",
        "lng": "113.996800"
    }, {
        "id": 8026,
        "name": "坦洲镇人民政府",
        "capacity": 30,
        "availBike": 11,
        "address": "广东省河源市紫金县",
        "lat": "23.439641",
        "lng": "114.744610"
    }, {
        "id": 1007,
        "name": "景观一品东南侧",
        "capacity": 16,
        "availBike": 7,
        "address": "广东省惠州市博罗县",
        "lat": "23.474042",
        "lng": "114.642785"
    }, {
        "id": 51,
        "name": "孙文公园驿站",
        "capacity": 36,
        "availBike": 25,
        "address": "广东省河源市东源县G205",
        "lat": "24.007037",
        "lng": "115.014194"
    }, {
        "id": 1334,
        "name": "外语学校",
        "capacity": 20,
        "availBike": 8,
        "address": "福建省龙岩市武平县S205",
        "lat": "24.933179",
        "lng": "116.061740"
    }, {
        "id": 113,
        "name": "名雅豪庭",
        "capacity": 30,
        "availBike": 15,
        "address": "广东省惠州市博罗县",
        "lat": "23.603913",
        "lng": "114.539550"
    }, {
        "id": 259,
        "name": "彩虹大道中",
        "capacity": 30,
        "availBike": 5,
        "address": "广东省东莞市东莞市市辖区X235(厚大路)",
        "lat": "22.932293",
        "lng": "113.776820"
    }, {
        "id": 180,
        "name": "东祥路口",
        "capacity": 20,
        "availBike": 7,
        "address": "广东省东莞市东莞市市辖区梅林路",
        "lat": "22.928311",
        "lng": "113.822025"
    }, {
        "id": 1093,
        "name": "水截头公交站",
        "capacity": 14,
        "availBike": 6,
        "address": "广东省河源市龙川县",
        "lat": "24.041463",
        "lng": "115.313780"
    }, {
        "id": 2042,
        "name": "古镇高级中学",
        "capacity": 50,
        "availBike": 25,
        "address": "江西省赣州市寻乌县G35(济广高速公路)",
        "lat": "25.065616",
        "lng": "115.772460"
    }, {
        "id": 8046,
        "name": "欣锠鞋厂",
        "capacity": 28,
        "availBike": 8,
        "address": "广东省河源市紫金县",
        "lat": "23.701078",
        "lng": "115.024430"
    }, {
        "id": 2018,
        "name": "古镇文化公园",
        "capacity": 40,
        "availBike": 22,
        "address": "广东省河源市和平县",
        "lat": "24.445325",
        "lng": "115.157960"
    }, {
        "id": 1344,
        "name": "璟湖城",
        "capacity": 20,
        "availBike": 0,
        "address": "福建省三明市永安市",
        "lat": "25.912800",
        "lng": "117.110150"
    }, {
        "id": 1173,
        "name": "西山永盛玩具厂",
        "capacity": 20,
        "availBike": 6,
        "address": "福建省龙岩市武平县",
        "lat": "24.875526",
        "lng": "116.210690"
    }, {
        "id": 8049,
        "name": "坦洲富城书店",
        "capacity": 18,
        "availBike": 6,
        "address": "广东省深圳市宝安区光明路27号",
        "lat": "22.691842",
        "lng": "113.931370"
    }, {
        "id": 2048,
        "name": "曹三小学",
        "capacity": 30,
        "availBike": 22,
        "address": "广东省河源市东源县S341",
        "lat": "24.094813",
        "lng": "114.798400"
    }, {
        "id": 149,
        "name": "西区货运场",
        "capacity": 20,
        "availBike": 12,
        "address": "广东省中山市中山市市辖区",
        "lat": "22.678514",
        "lng": "113.534160"
    }, {
        "id": 155,
        "name": "西区供电公司",
        "capacity": 30,
        "availBike": 15,
        "address": "广东省河源市龙川县",
        "lat": "24.489304",
        "lng": "115.477300"
    }, {
        "id": 106,
        "name": "沙岗墟",
        "capacity": 38,
        "availBike": 14,
        "address": "福建省龙岩市武平县",
        "lat": "25.100617",
        "lng": "116.167220"
    }, {
        "id": 2912,
        "name": "四海百货2",
        "capacity": 40,
        "availBike": 3,
        "address": "福建省龙岩市长汀县X651",
        "lat": "25.548836",
        "lng": "116.357060"
    }, {
        "id": 30,
        "name": "军分区",
        "capacity": 20,
        "availBike": 4,
        "address": "福建省龙岩市连城县",
        "lat": "25.635881",
        "lng": "116.782900"
    }, {
        "id": 2020,
        "name": "古镇车站",
        "capacity": 24,
        "availBike": 15,
        "address": "福建省龙岩市连城县",
        "lat": "25.838275",
        "lng": "116.651450"
    }, {
        "id": 186,
        "name": "长洲公园",
        "capacity": 30,
        "availBike": 9,
        "address": "广东省梅州市兴宁市X948",
        "lat": "24.528650",
        "lng": "115.517900"
    }, {
        "id": 248,
        "name": "凯茵新城碧云天",
        "capacity": 18,
        "availBike": 5,
        "address": "广东省河源市东源县",
        "lat": "23.972877",
        "lng": "115.042360"
    }, {
        "id": 1153,
        "name": "南龙村委",
        "capacity": 16,
        "availBike": 3,
        "address": "广东省河源市紫金县",
        "lat": "23.567650",
        "lng": "114.731520"
    }, {
        "id": 1012,
        "name": "中恒海晖园",
        "capacity": 20,
        "availBike": 7,
        "address": "福建省龙岩市连城县",
        "lat": "25.612409",
        "lng": "116.953415"
    }, {
        "id": 362,
        "name": "金水湾",
        "capacity": 40,
        "availBike": 15,
        "address": "广东省河源市龙川县S227",
        "lat": "24.431364",
        "lng": "115.444890"
    }, {
        "id": 1202,
        "name": "岭峰",
        "capacity": 20,
        "availBike": 7,
        "address": "福建省龙岩市连城县",
        "lat": "25.411526",
        "lng": "116.752244"
    }, {
        "id": 110,
        "name": "东盛花园",
        "capacity": 20,
        "availBike": 17,
        "address": "广东省惠州市博罗县Y549(上园路)",
        "lat": "23.118994",
        "lng": "114.008116"
    }, {
        "id": 1329,
        "name": "火炬区管委会",
        "capacity": 20,
        "availBike": 14,
        "address": "福建省龙岩市武平县X643",
        "lat": "25.167948",
        "lng": "116.287930"
    }, {
        "id": 1036,
        "name": "文化广场南门",
        "capacity": 30,
        "availBike": 7,
        "address": "广东省惠州市惠城区S27(仁深高速公路)",
        "lat": "23.064701",
        "lng": "114.201804"
    }, {
        "id": 1333,
        "name": "群英华庭",
        "capacity": 20,
        "availBike": 11,
        "address": "福建省三明市永安市",
        "lat": "25.882897",
        "lng": "117.073110"
    }, {
        "id": 31,
        "name": "中山学院北门",
        "capacity": 40,
        "availBike": 19,
        "address": "广东省梅州市平远县X040",
        "lat": "24.768186",
        "lng": "115.805050"
    }, {
        "id": 7,
        "name": "紫马岭公园西门",
        "capacity": 30,
        "availBike": 13,
        "address": "广东省河源市源城区Y006(东环路)",
        "lat": "23.746953",
        "lng": "114.738170"
    }, {
        "id": 1034,
        "name": "文化广场北门",
        "capacity": 20,
        "availBike": 11,
        "address": "福建省龙岩市武平县",
        "lat": "24.974415",
        "lng": "116.257530"
    }, {
        "id": 50,
        "name": "孙文公园",
        "capacity": 22,
        "availBike": 14,
        "address": "广东省惠州市博罗县",
        "lat": "23.439524",
        "lng": "114.403320"
    }, {
        "id": 174,
        "name": "白沙湾",
        "capacity": 20,
        "availBike": 9,
        "address": "福建省三明市永安市",
        "lat": "25.910318",
        "lng": "117.047636"
    }, {
        "id": 1325,
        "name": "东利",
        "capacity": 30,
        "availBike": 18,
        "address": "福建省三明市永安市",
        "lat": "25.922154",
        "lng": "117.146990"
    }, {
        "id": 1302,
        "name": "濠东小区",
        "capacity": 20,
        "availBike": 12,
        "address": "广东省河源市东源县",
        "lat": "23.893516",
        "lng": "114.899330"
    }, {
        "id": 39,
        "name": "建设局",
        "capacity": 26,
        "availBike": 17,
        "address": "广东省中山市中山市市辖区大龙井街",
        "lat": "22.543121",
        "lng": "113.423295"
    }, {
        "id": 8044,
        "name": "七村市场",
        "capacity": 20,
        "availBike": 12,
        "address": "广东省河源市紫金县",
        "lat": "23.644048",
        "lng": "114.968580"
    }]