[
    {
        "id": 460,
        "name": "东港湾花园北门",
        "lat": 22.556805,
        "lng": 113.39361,
        "capacity": 30,
        "availBike": 22,
        "address": "广东省中山市中山市市辖区江滨西路"
    },
    {
        "id": 51,
        "name": "孙文公园驿站",
        "lat": 22.499321,
        "lng": 113.388794,
        "capacity": 36,
        "availBike": 23,
        "address": "广东省中山市中山市市辖区南外环路"
    },
    {
        "id": 1200,
        "name": "亲子乐园",
        "lat": 22.353659,
        "lng": 113.44321,
        "capacity": 16,
        "availBike": 8,
        "address": "广东省中山市中山市市辖区金谷大道"
    },
    {
        "id": 1318,
        "name": "火炬职院西门",
        "lat": 22.549017,
        "lng": 113.45934,
        "capacity": 30,
        "availBike": 16,
        "address": "广东省中山市中山市市辖区民安街"
    },
    {
        "id": 31,
        "name": "中山学院北门",
        "lat": 22.530544,
        "lng": 113.39275,
        "capacity": 40,
        "availBike": 15,
        "address": "广东省中山市中山市市辖区柏桠直街29-1号"
    },
    {
        "id": 2040,
        "name": "明珠家园",
        "lat": 22.60817,
        "lng": 113.186676,
        "capacity": 30,
        "availBike": 13,
        "address": "广东省中山市中山市市辖区新兴西路13号"
    },
    {
        "id": 1116,
        "name": "南坑村口",
        "lat": 22.335924,
        "lng": 113.391846,
        "capacity": 10,
        "availBike": 5,
        "address": "广东省中山市中山市市辖区金凤路"
    },
    {
        "id": 8019,
        "name": "坦洲理工学校",
        "lat": 22.265375,
        "lng": 113.45959,
        "capacity": 40,
        "availBike": 19,
        "address": "广东省中山市中山市市辖区联中路"
    },
    {
        "id": 2032,
        "name": "冈东村委",
        "lat": 22.609135,
        "lng": 113.1827,
        "capacity": 20,
        "availBike": 9,
        "address": "广东省中山市中山市市辖区中心路西七巷"
    },
    {
        "id": 1011,
        "name": "雅居乐新城璟峰",
        "lat": 22.360962,
        "lng": 113.44668,
        "capacity": 20,
        "availBike": 9,
        "address": "广东省中山市中山市市辖区振华路9之一"
    },
    {
        "id": 207,
        "name": "南区文化中心",
        "lat": 22.486483,
        "lng": 113.358116,
        "capacity": 30,
        "availBike": 12,
        "address": "广东省中山市中山市市辖区银潭一路32号"
    },
    {
        "id": 38,
        "name": "中级人民法院",
        "lat": 22.51448,
        "lng": 113.39044,
        "capacity": 30,
        "availBike": 11,
        "address": "广东省中山市中山市市辖区体育路41号"
    },
    {
        "id": 2018,
        "name": "古镇文化公园",
        "lat": 22.614527,
        "lng": 113.18426,
        "capacity": 40,
        "availBike": 20,
        "address": "广东省中山市中山市市辖区中心路"
    },
    {
        "id": 456,
        "name": "祈安苑北门",
        "lat": 22.494635,
        "lng": 113.36766,
        "capacity": 38,
        "availBike": 13,
        "address": "广东省中山市中山市市辖区情景路"
    },
    {
        "id": 1102,
        "name": "鸦岗小学",
        "lat": 22.33932,
        "lng": 113.450806,
        "capacity": 18,
        "availBike": 6,
        "address": "广东省中山市中山市市辖区鸦岗大街"
    },
    {
        "id": 8032,
        "name": "合胜百货",
        "lat": 22.264303,
        "lng": 113.47371,
        "capacity": 36,
        "availBike": 19,
        "address": "广东省中山市中山市市辖区龙锦街9号"
    },
    {
        "id": 18,
        "name": "永怡花园",
        "lat": 22.530142,
        "lng": 113.39803,
        "capacity": 28,
        "availBike": 6,
        "address": "广东省中山市中山市市辖区豪源街1号"
    },
    {
        "id": 1029,
        "name": "伟立厂",
        "lat": 22.346495,
        "lng": 113.40986,
        "capacity": 30,
        "availBike": 21,
        "address": "广东省中山市中山市市辖区金凤路"
    },
    {
        "id": 251,
        "name": "凯茵新城雅湖居",
        "lat": 22.50879,
        "lng": 113.46212,
        "capacity": 20,
        "availBike": 6,
        "address": "广东省中山市中山市市辖区福获路"
    },
    {
        "id": 110,
        "name": "东盛花园",
        "lat": 22.544626,
        "lng": 113.388916,
        "capacity": 20,
        "availBike": 11,
        "address": "广东省中山市中山市市辖区东一大街9号"
    },
    {
        "id": 1025,
        "name": "社保局",
        "lat": 22.360142,
        "lng": 113.42895,
        "capacity": 28,
        "availBike": 16,
        "address": "广东省中山市中山市市辖区桥头上洋街"
    },
    {
        "id": 254,
        "name": "狮滘口桥",
        "lat": 22.530079,
        "lng": 113.36135,
        "capacity": 18,
        "availBike": 13,
        "address": "广东省中山市中山市市辖区西大街一巷93号"
    },
    {
        "id": 1110,
        "name": "斑鸠埔村口",
        "lat": 22.33803,
        "lng": 113.41641,
        "capacity": 12,
        "availBike": 6,
        "address": "广东省中山市中山市市辖区G94(珠三角环线高速公路)"
    },
    {
        "id": 420,
        "name": "民营科技园",
        "lat": 22.556063,
        "lng": 113.38942,
        "capacity": 30,
        "availBike": 17,
        "address": "广东省中山市中山市市辖区民富路"
    },
    {
        "id": 1137,
        "name": "三溪村",
        "lat": 22.346533,
        "lng": 113.3721,
        "capacity": 14,
        "availBike": 6,
        "address": "广东省中山市中山市市辖区G94(珠三角环线高速公路)"
    },
    {
        "id": 2013,
        "name": "照明灯饰采购中心",
        "lat": 22.605722,
        "lng": 113.18865,
        "capacity": 24,
        "availBike": 15,
        "address": "广东省中山市中山市市辖区东一路2号"
    },
    {
        "id": 1006,
        "name": "顺昌广场南",
        "lat": 22.361929,
        "lng": 113.443924,
        "capacity": 12,
        "availBike": 4,
        "address": "广东省中山市中山市市辖区秀苑路"
    },
    {
        "id": 1147,
        "name": "古鹤福群路小公园",
        "lat": 22.324469,
        "lng": 113.47731,
        "capacity": 20,
        "availBike": 8,
        "address": "广东省中山市中山市市辖区鹤湾路"
    },
    {
        "id": 1341,
        "name": "城东客运站",
        "lat": 22.56057,
        "lng": 113.465126,
        "capacity": 30,
        "availBike": 22,
        "address": "广东省中山市中山市市辖区横一街3号之四"
    },
    {
        "id": 132,
        "name": "紫茵庭园",
        "lat": 22.520784,
        "lng": 113.40367,
        "capacity": 20,
        "availBike": 6,
        "address": "广东省中山市中山市市辖区金竹街5号"
    },
    {
        "id": 1051,
        "name": "小琅环公园",
        "lat": 22.360008,
        "lng": 113.42038,
        "capacity": 40,
        "availBike": 9,
        "address": "广东省中山市中山市市辖区小琅环路"
    },
    {
        "id": 2011,
        "name": "乐丰花园",
        "lat": 22.618038,
        "lng": 113.189835,
        "capacity": 30,
        "availBike": 16,
        "address": "广东省中山市中山市市辖区西洲围大街30号"
    },
    {
        "id": 2045,
        "name": "世纪信佳",
        "lat": 22.663155,
        "lng": 113.184525,
        "capacity": 20,
        "availBike": 12,
        "address": "广东省中山市中山市市辖区顺城工业区"
    },
    {
        "id": 47,
        "name": "名树园",
        "lat": 22.504648,
        "lng": 113.39086,
        "capacity": 30,
        "availBike": 17,
        "address": "广东省中山市中山市市辖区旱塘正街19号"
    },
    {
        "id": 149,
        "name": "西区货运场",
        "lat": 22.51099,
        "lng": 113.35356,
        "capacity": 20,
        "availBike": 7,
        "address": "广东省中山市中山市市辖区高亮原路"
    },
    {
        "id": 196,
        "name": "悦来南路南",
        "lat": 22.502645,
        "lng": 113.368866,
        "capacity": 20,
        "availBike": 10,
        "address": "广东省中山市中山市市辖区悦来南路56号"
    },
    {
        "id": 70,
        "name": "柏苑新村",
        "lat": 22.515331,
        "lng": 113.38639,
        "capacity": 16,
        "availBike": 7,
        "address": "广东省中山市中山市市辖区岐关西路26号三楼"
    },
    {
        "id": 8001,
        "name": "坦洲医院",
        "lat": 22.27112,
        "lng": 113.464005,
        "capacity": 40,
        "availBike": 18,
        "address": "广东省中山市中山市市辖区德溪路"
    },
    {
        "id": 197,
        "name": "树木园北门",
        "lat": 22.49057,
        "lng": 113.37048,
        "capacity": 40,
        "availBike": 11,
        "address": "广东省中山市中山市市辖区永安一路"
    },
    {
        "id": 1311,
        "name": "开发区文化广场",
        "lat": 22.56552,
        "lng": 113.44679,
        "capacity": 20,
        "availBike": 10,
        "address": "广东省中山市中山市市辖区东河路"
    },
    {
        "id": 25,
        "name": "顺景花园",
        "lat": 22.51228,
        "lng": 113.3963,
        "capacity": 20,
        "availBike": 11,
        "address": "广东省中山市中山市市辖区兴中道30"
    },
    {
        "id": 1204,
        "name": "雅居乐佰利山路口",
        "lat": 22.345432,
        "lng": 113.45251,
        "capacity": 26,
        "availBike": 7,
        "address": "广东省中山市中山市市辖区鸦岗大街"
    },
    {
        "id": 459,
        "name": "南下市场",
        "lat": 22.506912,
        "lng": 113.37963,
        "capacity": 30,
        "availBike": 14,
        "address": "广东省中山市中山市市辖区Y007(广珠公路)"
    },
    {
        "id": 93,
        "name": "中山公园",
        "lat": 22.525908,
        "lng": 113.37303,
        "capacity": 30,
        "availBike": 12,
        "address": "广东省中山市中山市市辖区安栏路18号"
    },
    {
        "id": 58,
        "name": "石岐职中",
        "lat": 22.528355,
        "lng": 113.380905,
        "capacity": 20,
        "availBike": 8,
        "address": "广东省中山市中山市市辖区龙母庙街45-2号"
    },
    {
        "id": 260,
        "name": "大信新家园",
        "lat": 22.542597,
        "lng": 113.36037,
        "capacity": 30,
        "availBike": 7,
        "address": "广东省中山市中山市市辖区翠虹路"
    },
    {
        "id": 1321,
        "name": "张家边市场",
        "lat": 22.540812,
        "lng": 113.46449,
        "capacity": 30,
        "availBike": 16,
        "address": "广东省中山市中山市市辖区翠岭路3号-12栋"
    },
    {
        "id": 1010,
        "name": "会展中心",
        "lat": 22.359894,
        "lng": 113.442444,
        "capacity": 12,
        "availBike": 7,
        "address": "广东省中山市中山市市辖区金涌大道"
    },
    {
        "id": 1368,
        "name": "铂爵山",
        "lat": 22.544434,
        "lng": 113.457756,
        "capacity": 24,
        "availBike": 12,
        "address": "广东省中山市中山市市辖区窈窕大街"
    },
    {
        "id": 2021,
        "name": "聚群购物广场",
        "lat": 22.629633,
        "lng": 113.18861,
        "capacity": 34,
        "availBike": 16,
        "address": "广东省中山市中山市市辖区德胜路"
    },
    {
        "id": 21,
        "name": "东苑路北",
        "lat": 22.51905,
        "lng": 113.396515,
        "capacity": 20,
        "availBike": 9,
        "address": "广东省中山市中山市市辖区中山三路69号"
    },
    {
        "id": 162,
        "name": "金钻酒店",
        "lat": 22.540545,
        "lng": 113.38148,
        "capacity": 20,
        "availBike": 9,
        "address": "广东省中山市中山市市辖区工业大街"
    },
    {
        "id": 1332,
        "name": "加州阳光",
        "lat": 22.56154,
        "lng": 113.485596,
        "capacity": 20,
        "availBike": 5,
        "address": "广东省中山市中山市市辖区康乐大道"
    },
    {
        "id": 189,
        "name": "西区公安分局",
        "lat": 22.521,
        "lng": 113.347565,
        "capacity": 24,
        "availBike": 22,
        "address": "广东省中山市中山市市辖区沙溪南路52号"
    },
    {
        "id": 1016,
        "name": "东城艺墅",
        "lat": 22.346483,
        "lng": 113.443504,
        "capacity": 16,
        "availBike": 6,
        "address": "广东省中山市中山市市辖区东成路"
    },
    {
        "id": 2036,
        "name": "古二村委会",
        "lat": 22.6255,
        "lng": 113.18201,
        "capacity": 16,
        "availBike": 8,
        "address": "广东省中山市中山市市辖区古三村大街"
    },
    {
        "id": 8014,
        "name": "坦洲行政服务中心",
        "lat": 22.274153,
        "lng": 113.46572,
        "capacity": 30,
        "availBike": 15,
        "address": "广东省中山市中山市市辖区永前路"
    },
    {
        "id": 8015,
        "name": "坦洲交警支队",
        "lat": 22.27177,
        "lng": 113.4677,
        "capacity": 20,
        "availBike": 10,
        "address": "广东省中山市中山市市辖区德溪路127"
    },
    {
        "id": 1049,
        "name": "英东亭",
        "lat": 22.365473,
        "lng": 113.456955,
        "capacity": 16,
        "availBike": 8,
        "address": "广东省中山市中山市市辖区鹤塘路"
    },
    {
        "id": 2027,
        "name": "冈南新城批发市场",
        "lat": 22.60056,
        "lng": 113.17849,
        "capacity": 26,
        "availBike": 9,
        "address": "广东省江门市江海区S364(新兴大道西)"
    },
    {
        "id": 1124,
        "name": "华丰商业街",
        "lat": 22.353743,
        "lng": 113.432556,
        "capacity": 16,
        "availBike": 6,
        "address": "广东省中山市中山市市辖区平洋街"
    },
    {
        "id": 267,
        "name": "西区医院",
        "lat": 22.55434,
        "lng": 113.34381,
        "capacity": 29,
        "availBike": 17,
        "address": "广东省中山市中山市市辖区S268(沙古公路)"
    },
    {
        "id": 146,
        "name": "吉之岛",
        "lat": 22.512691,
        "lng": 113.36824,
        "capacity": 30,
        "availBike": 25,
        "address": "广东省中山市中山市市辖区安山大街西十二巷16号"
    },
    {
        "id": 1017,
        "name": "金谷供电公司",
        "lat": 22.348825,
        "lng": 113.435875,
        "capacity": 16,
        "availBike": 13,
        "address": "广东省中山市中山市市辖区金谷大道314"
    },
    {
        "id": 154,
        "name": "汽车总站",
        "lat": 22.521065,
        "lng": 113.34374,
        "capacity": 30,
        "availBike": 18,
        "address": "广东省中山市中山市市辖区学府大街12"
    },
    {
        "id": 62,
        "name": "金鹰广场",
        "lat": 22.520138,
        "lng": 113.38827,
        "capacity": 20,
        "availBike": 9,
        "address": "广东省中山市中山市市辖区华柏路78号"
    },
    {
        "id": 204,
        "name": "碧堤湾畔",
        "lat": 22.499437,
        "lng": 113.35663,
        "capacity": 20,
        "availBike": 15,
        "address": "广东省中山市中山市市辖区环南一路226号"
    },
    {
        "id": 1195,
        "name": "沙岗路口",
        "lat": 22.36805,
        "lng": 113.442665,
        "capacity": 20,
        "availBike": 16,
        "address": "广东省中山市中山市市辖区文昌东路"
    },
    {
        "id": 2034,
        "name": "古三小公园",
        "lat": 22.620829,
        "lng": 113.17427,
        "capacity": 28,
        "availBike": 13,
        "address": "广东省中山市中山市市辖区X532(中兴四路)"
    },
    {
        "id": 330,
        "name": "大鳌溪新村",
        "lat": 22.509583,
        "lng": 113.42555,
        "capacity": 20,
        "availBike": 11,
        "address": "广东省中山市中山市市辖区长命水长逸路"
    },
    {
        "id": 168,
        "name": "中山北站",
        "lat": 22.557842,
        "lng": 113.383156,
        "capacity": 40,
        "availBike": 27,
        "address": "广东省中山市中山市市辖区兴港南路"
    },
    {
        "id": 83,
        "name": "沙岗村北",
        "lat": 22.504112,
        "lng": 113.37937,
        "capacity": 16,
        "availBike": 8,
        "address": "广东省中山市中山市市辖区Y007(广珠公路)"
    },
    {
        "id": 8026,
        "name": "坦洲镇人民政府",
        "lat": 22.255007,
        "lng": 113.46751,
        "capacity": 30,
        "availBike": 9,
        "address": "广东省中山市中山市市辖区新一街"
    },
    {
        "id": 206,
        "name": "公路局养征所",
        "lat": 22.489756,
        "lng": 113.356606,
        "capacity": 22,
        "availBike": 9,
        "address": "广东省中山市中山市市辖区昌盛路"
    },
    {
        "id": 1206,
        "name": "雅居乐新城都会北",
        "lat": 22.363203,
        "lng": 113.44739,
        "capacity": 16,
        "availBike": 5,
        "address": "广东省中山市中山市市辖区景观大道1"
    },
    {
        "id": 1172,
        "name": "白石检测站",
        "lat": 22.347235,
        "lng": 113.40142,
        "capacity": 16,
        "availBike": 6,
        "address": "广东省中山市中山市市辖区G94(珠三角环线高速公路)"
    },
    {
        "id": 1906,
        "name": "南头轻轨站",
        "lat": 22.712868,
        "lng": 113.30866,
        "capacity": 40,
        "availBike": 24,
        "address": "广东省中山市中山市市辖区升辉南路"
    },
    {
        "id": 1030,
        "name": "雅湖居公交站南行",
        "lat": 22.351168,
        "lng": 113.43902,
        "capacity": 28,
        "availBike": 11,
        "address": "广东省中山市中山市市辖区金谷大道196号"
    },
    {
        "id": 1907,
        "name": "将军市场",
        "lat": 22.713085,
        "lng": 113.31861,
        "capacity": 40,
        "availBike": 22,
        "address": "广东省中山市中山市市辖区祥盛路"
    },
    {
        "id": 8050,
        "name": "坦洲联一小学",
        "lat": 22.262278,
        "lng": 113.455124,
        "capacity": 32,
        "availBike": 14,
        "address": "广东省中山市中山市市辖区联中路"
    },
    {
        "id": 1059,
        "name": "宝元医院",
        "lat": 22.36212,
        "lng": 113.432396,
        "capacity": 16,
        "availBike": 9,
        "address": "广东省中山市中山市市辖区人瑞里街"
    },
    {
        "id": 1602,
        "name": "港口壹加壹",
        "lat": 22.580362,
        "lng": 113.38283,
        "capacity": 16,
        "availBike": 8,
        "address": "广东省中山市中山市市辖区西大街"
    },
    {
        "id": 117,
        "name": "石岐购书中心",
        "lat": 22.535929,
        "lng": 113.384766,
        "capacity": 24,
        "availBike": 7,
        "address": "广东省中山市中山市市辖区天湖上街49号"
    },
    {
        "id": 1309,
        "name": "高科技富拉司特",
        "lat": 22.567896,
        "lng": 113.440125,
        "capacity": 20,
        "availBike": 8,
        "address": "广东省中山市中山市市辖区濠江路"
    },
    {
        "id": 107,
        "name": "宏基社区居委会",
        "lat": 22.532852,
        "lng": 113.39706,
        "capacity": 24,
        "availBike": 2,
        "address": "广东省中山市中山市市辖区富康路"
    },
    {
        "id": 1090,
        "name": "巨龙古玩城西门",
        "lat": 22.353157,
        "lng": 113.47205,
        "capacity": 20,
        "availBike": 9,
        "address": "广东省中山市中山市市辖区S268"
    },
    {
        "id": 65,
        "name": "华侨中学初中部",
        "lat": 22.518372,
        "lng": 113.381744,
        "capacity": 20,
        "availBike": 4,
        "address": "广东省中山市中山市市辖区三级石59"
    },
    {
        "id": 172,
        "name": "沙岗墟北",
        "lat": 22.535063,
        "lng": 113.40325,
        "capacity": 30,
        "availBike": 11,
        "address": "广东省中山市中山市市辖区豪程路"
    },
    {
        "id": 1036,
        "name": "文化广场南门",
        "lat": 22.358707,
        "lng": 113.440704,
        "capacity": 30,
        "availBike": 11,
        "address": "广东省中山市中山市市辖区光后新路"
    },
    {
        "id": 1044,
        "name": "宝元大道北",
        "lat": 22.367083,
        "lng": 113.42663,
        "capacity": 14,
        "availBike": 10,
        "address": "广东省中山市中山市市辖区小琅环路"
    },
    {
        "id": 1364,
        "name": "卡西欧电子厂",
        "lat": 22.5679,
        "lng": 113.42964,
        "capacity": 20,
        "availBike": 11,
        "address": "广东省中山市中山市市辖区上街"
    },
    {
        "id": 1603,
        "name": "美景市场",
        "lat": 22.573526,
        "lng": 113.38776,
        "capacity": 16,
        "availBike": 6,
        "address": "广东省中山市中山市市辖区木河迳街86号"
    },
    {
        "id": 1181,
        "name": "庭记酒楼",
        "lat": 22.347956,
        "lng": 113.41809,
        "capacity": 16,
        "availBike": 11,
        "address": "广东省中山市中山市市辖区G105"
    },
    {
        "id": 1313,
        "name": "中山港一加一",
        "lat": 22.55839,
        "lng": 113.46212,
        "capacity": 36,
        "availBike": 24,
        "address": "广东省中山市中山市市辖区沙边路5"
    },
    {
        "id": 2024,
        "name": "灯都灯饰配件",
        "lat": 22.60094,
        "lng": 113.192,
        "capacity": 18,
        "availBike": 8,
        "address": "广东省中山市中山市市辖区和丰街"
    },
    {
        "id": 1023,
        "name": "新城路与广场路口",
        "lat": 22.357876,
        "lng": 113.443565,
        "capacity": 14,
        "availBike": 6,
        "address": "广东省中山市中山市市辖区金光大道"
    },
    {
        "id": 8039,
        "name": "中澳景湖居",
        "lat": 22.262138,
        "lng": 113.48431,
        "capacity": 28,
        "availBike": 12,
        "address": "广东省中山市中山市市辖区晓阳路13"
    },
    {
        "id": 147,
        "name": "石岐中学",
        "lat": 22.536257,
        "lng": 113.394936,
        "capacity": 40,
        "availBike": 11,
        "address": "广东省中山市中山市市辖区莲塘东路2号"
    },
    {
        "id": 1105,
        "name": "鸦岗村委公园",
        "lat": 22.340094,
        "lng": 113.4475,
        "capacity": 14,
        "availBike": 9,
        "address": "广东省中山市中山市市辖区G105"
    },
    {
        "id": 144,
        "name": "三溪村北",
        "lat": 22.501024,
        "lng": 113.42179,
        "capacity": 20,
        "availBike": 8,
        "address": "广东省中山市中山市市辖区南外环路"
    },
    {
        "id": 334,
        "name": "竹秀园居委会",
        "lat": 22.480988,
        "lng": 113.35605,
        "capacity": 20,
        "availBike": 10,
        "address": "广东省中山市中山市市辖区城南三路36号"
    },
    {
        "id": 24,
        "name": "东苑路南",
        "lat": 22.51382,
        "lng": 113.39656,
        "capacity": 18,
        "availBike": 16,
        "address": "广东省中山市中山市市辖区S268(兴中道)"
    },
    {
        "id": 153,
        "name": "西区邮局",
        "lat": 22.520485,
        "lng": 113.34975,
        "capacity": 24,
        "availBike": 10,
        "address": "广东省中山市中山市市辖区G105"
    },
    {
        "id": 386,
        "name": "翠景市场",
        "lat": 22.526854,
        "lng": 113.34959,
        "capacity": 30,
        "availBike": 15,
        "address": "广东省中山市中山市市辖区富华道48号"
    },
    {
        "id": 1037,
        "name": "华丰桥",
        "lat": 22.35552,
        "lng": 113.434,
        "capacity": 24,
        "availBike": 9,
        "address": "广东省中山市中山市市辖区环镇路23"
    },
    {
        "id": 123,
        "name": "逸仙湖公园",
        "lat": 22.52762,
        "lng": 113.374146,
        "capacity": 30,
        "availBike": 7,
        "address": "广东省中山市中山市市辖区孙文西路253号"
    },
    {
        "id": 1018,
        "name": "新盛世路口",
        "lat": 22.3469,
        "lng": 113.43414,
        "capacity": 20,
        "availBike": 10,
        "address": "广东省中山市中山市市辖区金谷大道"
    },
    {
        "id": 1022,
        "name": "英伦花园",
        "lat": 22.359125,
        "lng": 113.44501,
        "capacity": 22,
        "availBike": 13,
        "address": "广东省中山市中山市市辖区康宁街"
    },
    {
        "id": 1182,
        "name": "沙伯特",
        "lat": 22.371729,
        "lng": 113.42237,
        "capacity": 18,
        "availBike": 9,
        "address": "广东省中山市中山市市辖区平兴路"
    },
    {
        "id": 1189,
        "name": "三鑫中学",
        "lat": 22.334635,
        "lng": 113.4215,
        "capacity": 16,
        "availBike": 9,
        "address": "广东省中山市中山市市辖区G94(珠三角环线高速公路)"
    },
    {
        "id": 1048,
        "name": "谷都派出所对面",
        "lat": 22.365356,
        "lng": 113.42367,
        "capacity": 12,
        "availBike": 6,
        "address": "广东省中山市中山市市辖区小琅环路"
    },
    {
        "id": 8016,
        "name": "一知万",
        "lat": 22.270658,
        "lng": 113.467224,
        "capacity": 26,
        "availBike": 10,
        "address": "广东省中山市中山市市辖区德溪路88号"
    },
    {
        "id": 474,
        "name": "火炬公交枢纽站",
        "lat": 22.549974,
        "lng": 113.488686,
        "capacity": 20,
        "availBike": 9,
        "address": "广东省中山市中山市市辖区展兴路8"
    },
    {
        "id": 268,
        "name": "沙朗市场",
        "lat": 22.557508,
        "lng": 113.34066,
        "capacity": 40,
        "availBike": 27,
        "address": "广东省中山市中山市市辖区兴达街"
    },
    {
        "id": 265,
        "name": "创世纪汽车公司",
        "lat": 22.546993,
        "lng": 113.35297,
        "capacity": 30,
        "availBike": 20,
        "address": "广东省中山市中山市市辖区翠景道"
    },
    {
        "id": 1004,
        "name": "沙坦路口西南侧",
        "lat": 22.365437,
        "lng": 113.443085,
        "capacity": 20,
        "availBike": 8,
        "address": "广东省中山市中山市市辖区文昌路a-15"
    },
    {
        "id": 1052,
        "name": "雅居乐花园一期",
        "lat": 22.354239,
        "lng": 113.43833,
        "capacity": 20,
        "availBike": 7,
        "address": "广东省中山市中山市市辖区新下冲路9号"
    },
    {
        "id": 8048,
        "name": "安阜市场",
        "lat": 22.252111,
        "lng": 133.47578,
        "capacity": 30,
        "availBike": 9,
        "address": ""
    },
    {
        "id": 269,
        "name": "蔷薇山庄",
        "lat": 22.525679,
        "lng": 113.41234,
        "capacity": 20,
        "availBike": 5,
        "address": "广东省中山市中山市市辖区孙文东路669"
    },
    {
        "id": 33,
        "name": "假日广场1",
        "lat": 22.521833,
        "lng": 113.3905,
        "capacity": 30,
        "availBike": 6,
        "address": "广东省中山市中山市市辖区兴华街47号"
    },
    {
        "id": 1145,
        "name": "新圩105国道村口",
        "lat": 22.325228,
        "lng": 113.46607,
        "capacity": 16,
        "availBike": 10,
        "address": "广东省中山市中山市市辖区S268(沙坦路)"
    },
    {
        "id": 95,
        "name": "悦来路逢源路口",
        "lat": 22.519245,
        "lng": 113.370766,
        "capacity": 30,
        "availBike": 10,
        "address": "广东省中山市中山市市辖区华光路1号"
    },
    {
        "id": 380,
        "name": "中信左岸",
        "lat": 22.50852,
        "lng": 113.348656,
        "capacity": 40,
        "availBike": 15,
        "address": "广东省中山市中山市市辖区G105"
    },
    {
        "id": 2033,
        "name": "古三社区服务站",
        "lat": 22.620047,
        "lng": 113.17487,
        "capacity": 16,
        "availBike": 10,
        "address": "广东省中山市中山市市辖区X532(中兴四路)"
    },
    {
        "id": 211,
        "name": "南区医院",
        "lat": 22.481155,
        "lng": 113.3505,
        "capacity": 40,
        "availBike": 25,
        "address": "广东省中山市中山市市辖区环村东路"
    },
    {
        "id": 192,
        "name": "朗晴假日东",
        "lat": 22.499983,
        "lng": 113.38071,
        "capacity": 20,
        "availBike": 0,
        "address": "广东省中山市中山市市辖区旱坑大街二巷"
    },
    {
        "id": 136,
        "name": "紫马岭公园",
        "lat": 22.512981,
        "lng": 113.40637,
        "capacity": 40,
        "availBike": 30,
        "address": "广东省中山市中山市市辖区万和街25号"
    },
    {
        "id": 8041,
        "name": "神州华府",
        "lat": 22.265894,
        "lng": 113.481346,
        "capacity": 20,
        "availBike": 10,
        "address": "广东省中山市中山市市辖区晓阳路4号"
    },
    {
        "id": 1033,
        "name": "平安车站",
        "lat": 22.362438,
        "lng": 113.43926,
        "capacity": 16,
        "availBike": 12,
        "address": "广东省中山市中山市市辖区文昌中路172"
    },
    {
        "id": 102,
        "name": "光明桥",
        "lat": 22.523418,
        "lng": 113.3653,
        "capacity": 20,
        "availBike": 9,
        "address": "广东省中山市中山市市辖区西河东路"
    },
    {
        "id": 1365,
        "name": "火炬益华百货",
        "lat": 22.552544,
        "lng": 113.48829,
        "capacity": 50,
        "availBike": 32,
        "address": "广东省中山市中山市市辖区东镇东一路"
    },
    {
        "id": 8042,
        "name": "电信坦洲营业厅",
        "lat": 22.26496,
        "lng": 113.48274,
        "capacity": 30,
        "availBike": 12,
        "address": "广东省中山市中山市市辖区嘉怡路5号"
    },
    {
        "id": 1098,
        "name": "新圩市场",
        "lat": 22.323278,
        "lng": 113.46487,
        "capacity": 20,
        "availBike": 9,
        "address": "广东省中山市中山市市辖区沿湾街"
    },
    {
        "id": 1186,
        "name": "富和名都南",
        "lat": 22.36378,
        "lng": 113.448494,
        "capacity": 20,
        "availBike": 7,
        "address": "广东省中山市中山市市辖区景观大道1"
    },
    {
        "id": 82,
        "name": "港航管理局",
        "lat": 22.501272,
        "lng": 113.39689,
        "capacity": 30,
        "availBike": 23,
        "address": "广东省中山市中山市市辖区兴文路"
    },
    {
        "id": 109,
        "name": "侨中高中部",
        "lat": 22.5459,
        "lng": 113.39365,
        "capacity": 40,
        "availBike": 18,
        "address": "广东省中山市中山市市辖区东明路23号"
    },
    {
        "id": 1174,
        "name": "宝元大道北交界",
        "lat": 22.36867,
        "lng": 113.425995,
        "capacity": 20,
        "availBike": 14,
        "address": "广东省中山市中山市市辖区小琅环路"
    },
    {
        "id": 75,
        "name": "益华百货",
        "lat": 22.510574,
        "lng": 113.38583,
        "capacity": 20,
        "availBike": 9,
        "address": "广东省中山市中山市市辖区沙石公路1"
    },
    {
        "id": 1903,
        "name": "广济医院",
        "lat": 22.710901,
        "lng": 113.29231,
        "capacity": 40,
        "availBike": 24,
        "address": "广东省中山市中山市市辖区沿江路"
    },
    {
        "id": 2029,
        "name": "六坊村委",
        "lat": 22.610825,
        "lng": 113.175255,
        "capacity": 20,
        "availBike": 9,
        "address": "广东省中山市中山市市辖区西岸中路"
    },
    {
        "id": 181,
        "name": "白水井大街西",
        "lat": 22.516262,
        "lng": 113.37696,
        "capacity": 18,
        "availBike": 5,
        "address": "广东省中山市中山市市辖区南安路9号-之1"
    },
    {
        "id": 1335,
        "name": "数贸大厦",
        "lat": 22.558714,
        "lng": 113.49103,
        "capacity": 20,
        "availBike": 9,
        "address": "广东省中山市中山市市辖区同乐东路"
    },
    {
        "id": 72,
        "name": "石岐沃尔玛",
        "lat": 22.51342,
        "lng": 113.38067,
        "capacity": 24,
        "availBike": 18,
        "address": "广东省中山市中山市市辖区南边大道37号"
    },
    {
        "id": 59,
        "name": "人民医院",
        "lat": 22.523458,
        "lng": 113.38322,
        "capacity": 42,
        "availBike": 33,
        "address": "广东省中山市中山市市辖区民生路91号"
    },
    {
        "id": 1356,
        "name": "六和社区居委会",
        "lat": 22.532299,
        "lng": 113.458565,
        "capacity": 20,
        "availBike": 4,
        "address": "广东省中山市中山市市辖区京珠高速公路"
    },
    {
        "id": 1908,
        "name": "民安市场",
        "lat": 22.731813,
        "lng": 113.28885,
        "capacity": 30,
        "availBike": 17,
        "address": "广东省中山市中山市市辖区南华路9"
    },
    {
        "id": 1135,
        "name": "白石社区服务中心",
        "lat": 22.352736,
        "lng": 113.37835,
        "capacity": 20,
        "availBike": 9,
        "address": "广东省中山市中山市市辖区连塘二巷"
    },
    {
        "id": 2212,
        "name": "四海百货2",
        "lat": 22.609875,
        "lng": 113.214005,
        "capacity": 40,
        "availBike": 18,
        "address": "广东省中山市中山市市辖区华盛东路南3巷"
    },
    {
        "id": 385,
        "name": "和景花园西门",
        "lat": 22.500568,
        "lng": 113.40513,
        "capacity": 30,
        "availBike": 15,
        "address": "广东省中山市中山市市辖区S268(城桂公路)"
    },
    {
        "id": 361,
        "name": "侨中英才学校",
        "lat": 22.488394,
        "lng": 113.35988,
        "capacity": 30,
        "availBike": 5,
        "address": "广东省中山市中山市市辖区银潭一路37"
    },
    {
        "id": 1113,
        "name": "泉林山庄",
        "lat": 22.330635,
        "lng": 113.40311,
        "capacity": 20,
        "availBike": 8,
        "address": "广东省中山市中山市市辖区"
    },
    {
        "id": 1012,
        "name": "中恒海晖园",
        "lat": 22.36364,
        "lng": 113.451065,
        "capacity": 20,
        "availBike": 8,
        "address": "广东省中山市中山市市辖区新城路"
    },
    {
        "id": 2007,
        "name": "海洲健身广场1",
        "lat": 22.659058,
        "lng": 113.18239,
        "capacity": 18,
        "availBike": 11,
        "address": "广东省中山市中山市市辖区顺康大道"
    },
    {
        "id": 1175,
        "name": "光后小学",
        "lat": 22.352531,
        "lng": 113.43673,
        "capacity": 16,
        "availBike": 13,
        "address": "广东省中山市中山市市辖区东堡街"
    },
    {
        "id": 80,
        "name": "雍景园东门",
        "lat": 22.505688,
        "lng": 113.385925,
        "capacity": 30,
        "availBike": 10,
        "address": "广东省中山市中山市市辖区银通路"
    },
    {
        "id": 92,
        "name": "亭子下大街天桥",
        "lat": 22.513567,
        "lng": 113.37263,
        "capacity": 20,
        "availBike": 8,
        "address": "广东省中山市中山市市辖区悦银街8号"
    },
    {
        "id": 1019,
        "name": "平东商业街路口",
        "lat": 22.345293,
        "lng": 113.432915,
        "capacity": 20,
        "availBike": 8,
        "address": "广东省中山市中山市市辖区金星路"
    },
    {
        "id": 8038,
        "name": "世纪银星商业广场",
        "lat": 22.261942,
        "lng": 113.47778,
        "capacity": 40,
        "availBike": 10,
        "address": "广东省中山市中山市市辖区曙光路8号"
    },
    {
        "id": 52,
        "name": "博爱医院",
        "lat": 22.49767,
        "lng": 113.391266,
        "capacity": 40,
        "availBike": 27,
        "address": "广东省中山市中山市市辖区新安路"
    },
    {
        "id": 8031,
        "name": "坦洲中心市场",
        "lat": 22.26643,
        "lng": 113.47182,
        "capacity": 32,
        "availBike": 10,
        "address": "广东省中山市中山市市辖区南州路1号"
    },
    {
        "id": 184,
        "name": "下披头",
        "lat": 22.523468,
        "lng": 113.43191,
        "capacity": 30,
        "availBike": 13,
        "address": "广东省中山市中山市市辖区东江路"
    },
    {
        "id": 1362,
        "name": "临海中机建设",
        "lat": 22.575815,
        "lng": 113.577126,
        "capacity": 30,
        "availBike": 16,
        "address": "广东省中山市中山市市辖区飞鹅山正街"
    },
    {
        "id": 8028,
        "name": "壹加壹(联邦制药)",
        "lat": 22.252626,
        "lng": 113.47152,
        "capacity": 30,
        "availBike": 13,
        "address": "广东省中山市中山市市辖区稔胜街"
    },
    {
        "id": 1331,
        "name": "中山港客运码头",
        "lat": 22.56897,
        "lng": 113.47875,
        "capacity": 20,
        "availBike": 11,
        "address": "广东省中山市中山市市辖区岐民路9"
    },
    {
        "id": 1601,
        "name": "港口镇政府",
        "lat": 22.584959,
        "lng": 113.38435,
        "capacity": 16,
        "availBike": 6,
        "address": "广东省中山市中山市市辖区民新路10"
    },
    {
        "id": 473,
        "name": "康乐大道",
        "lat": 22.547009,
        "lng": 113.47892,
        "capacity": 30,
        "availBike": 0,
        "address": "广东省中山市中山市市辖区逸仙路36"
    },
    {
        "id": 2006,
        "name": "天宏物流",
        "lat": 22.635134,
        "lng": 113.19518,
        "capacity": 26,
        "availBike": 12,
        "address": "广东省中山市中山市市辖区顺康大道9号"
    },
    {
        "id": 1095,
        "name": "古鹤市场",
        "lat": 22.32343,
        "lng": 113.474686,
        "capacity": 16,
        "availBike": 8,
        "address": "广东省中山市中山市市辖区兴业路"
    },
    {
        "id": 119,
        "name": "富逸装饰广场",
        "lat": 22.53413,
        "lng": 113.36819,
        "capacity": 32,
        "availBike": 10,
        "address": "广东省中山市中山市市辖区后山大街61号"
    },
    {
        "id": 1042,
        "name": "雅居乐中心城路口",
        "lat": 22.344652,
        "lng": 113.44927,
        "capacity": 26,
        "availBike": 13,
        "address": "广东省中山市中山市市辖区康悦路"
    },
    {
        "id": 54,
        "name": "金钟水库驿站1",
        "lat": 22.485916,
        "lng": 113.39154,
        "capacity": 30,
        "availBike": 11,
        "address": "广东省中山市中山市市辖区新安大街"
    },
    {
        "id": 161,
        "name": "东明花园南",
        "lat": 22.5388,
        "lng": 113.38522,
        "capacity": 30,
        "availBike": 16,
        "address": "广东省中山市中山市市辖区始兴路"
    },
    {
        "id": 1028,
        "name": "百乐城",
        "lat": 22.35542,
        "lng": 113.434364,
        "capacity": 20,
        "availBike": 10,
        "address": "广东省中山市中山市市辖区环镇路23"
    },
    {
        "id": 259,
        "name": "彩虹大道中",
        "lat": 22.543398,
        "lng": 113.35757,
        "capacity": 30,
        "availBike": 14,
        "address": "广东省中山市中山市市辖区翠沙路"
    },
    {
        "id": 1367,
        "name": "佰汇广场",
        "lat": 22.559523,
        "lng": 113.45697,
        "capacity": 30,
        "availBike": 13,
        "address": "广东省中山市中山市市辖区沙边路8号005"
    },
    {
        "id": 41,
        "name": "地税局",
        "lat": 22.50938,
        "lng": 113.39091,
        "capacity": 30,
        "availBike": 7,
        "address": "广东省中山市中山市市辖区天皇路东1巷"
    },
    {
        "id": 8018,
        "name": "祥圣华苑",
        "lat": 22.267363,
        "lng": 113.46353,
        "capacity": 30,
        "availBike": 12,
        "address": "广东省中山市中山市市辖区联中路4号"
    },
    {
        "id": 1088,
        "name": "塘敢布匹市场",
        "lat": 22.363817,
        "lng": 113.49144,
        "capacity": 16,
        "availBike": 11,
        "address": "广东省中山市中山市市辖区西山路"
    },
    {
        "id": 468,
        "name": "祈安苑东门",
        "lat": 22.492933,
        "lng": 113.36811,
        "capacity": 34,
        "availBike": 19,
        "address": "广东省中山市中山市市辖区情景路"
    },
    {
        "id": 60,
        "name": "莲兴路口",
        "lat": 22.521412,
        "lng": 113.384155,
        "capacity": 24,
        "availBike": 16,
        "address": "广东省中山市中山市市辖区民生路90号-第2幢"
    },
    {
        "id": 1094,
        "name": "西山村委门口",
        "lat": 22.344181,
        "lng": 113.4837,
        "capacity": 12,
        "availBike": 4,
        "address": "广东省中山市中山市市辖区西山路1"
    },
    {
        "id": 36,
        "name": "市政府西",
        "lat": 22.5161,
        "lng": 113.39194,
        "capacity": 30,
        "availBike": 23,
        "address": "广东省中山市中山市市辖区银通街15"
    },
    {
        "id": 1314,
        "name": "火炬职院实训楼",
        "lat": 22.55066,
        "lng": 113.45782,
        "capacity": 30,
        "availBike": 18,
        "address": "广东省中山市中山市市辖区窈窕工业一街"
    },
    {
        "id": 2028,
        "name": "冈南老人院",
        "lat": 22.606728,
        "lng": 113.17716,
        "capacity": 22,
        "availBike": 17,
        "address": "广东省中山市中山市市辖区西岸中路"
    },
    {
        "id": 199,
        "name": "银星花园",
        "lat": 22.499353,
        "lng": 113.36346,
        "capacity": 20,
        "availBike": 7,
        "address": "广东省中山市中山市市辖区南外环路"
    },
    {
        "id": 391,
        "name": "远洋城美域",
        "lat": 22.4954,
        "lng": 113.41334,
        "capacity": 30,
        "availBike": 23,
        "address": "广东省中山市中山市市辖区南外环路"
    },
    {
        "id": 1153,
        "name": "南龙村委",
        "lat": 22.335152,
        "lng": 113.40282,
        "capacity": 16,
        "availBike": 7,
        "address": "广东省中山市中山市市辖区金龙路"
    },
    {
        "id": 2008,
        "name": "飞利浦照明",
        "lat": 22.60734,
        "lng": 113.2047,
        "capacity": 20,
        "availBike": 12,
        "address": "广东省中山市中山市市辖区S268(岐江公路)"
    },
    {
        "id": 8022,
        "name": "坦洲旧桥",
        "lat": 22.261961,
        "lng": 113.46456,
        "capacity": 30,
        "availBike": 15,
        "address": "广东省中山市中山市市辖区太和路47号"
    },
    {
        "id": 185,
        "name": "公交城东站场",
        "lat": 22.519844,
        "lng": 113.43667,
        "capacity": 30,
        "availBike": 24,
        "address": "广东省中山市中山市市辖区鳌博大街"
    },
    {
        "id": 97,
        "name": "交通局",
        "lat": 22.511126,
        "lng": 113.368614,
        "capacity": 40,
        "availBike": 8,
        "address": "广东省中山市中山市市辖区星宝街58号"
    },
    {
        "id": 8005,
        "name": "青少年活动中心",
        "lat": 22.275702,
        "lng": 113.46289,
        "capacity": 28,
        "availBike": 9,
        "address": "广东省中山市中山市市辖区永前路"
    },
    {
        "id": 1020,
        "name": "金谷路与岭南路交",
        "lat": 22.34292,
        "lng": 113.43093,
        "capacity": 14,
        "availBike": 7,
        "address": "广东省中山市中山市市辖区G105"
    },
    {
        "id": 2016,
        "name": "冈东",
        "lat": 22.608732,
        "lng": 113.18506,
        "capacity": 18,
        "availBike": 15,
        "address": "广东省中山市中山市市辖区中心路东3巷"
    },
    {
        "id": 194,
        "name": "朗晴假日北",
        "lat": 22.50293,
        "lng": 113.376526,
        "capacity": 30,
        "availBike": 18,
        "address": "广东省中山市中山市市辖区永安一路"
    },
    {
        "id": 35,
        "name": "兴中园",
        "lat": 22.517582,
        "lng": 113.390495,
        "capacity": 30,
        "availBike": 17,
        "address": "广东省中山市中山市市辖区益恒街"
    },
    {
        "id": 955,
        "name": "金钟水库驿站3",
        "lat": 22.483717,
        "lng": 113.39035,
        "capacity": 31,
        "availBike": 16,
        "address": "广东省中山市中山市市辖区"
    },
    {
        "id": 8006,
        "name": "市民广场北",
        "lat": 22.274986,
        "lng": 113.46439,
        "capacity": 28,
        "availBike": 6,
        "address": "广东省中山市中山市市辖区永前路"
    },
    {
        "id": 1190,
        "name": "塘撖布匹新市场",
        "lat": 22.3647,
        "lng": 113.49147,
        "capacity": 16,
        "availBike": 8,
        "address": "广东省中山市中山市市辖区S268"
    },
    {
        "id": 1144,
        "name": "茅湾市场",
        "lat": 22.321238,
        "lng": 113.45805,
        "capacity": 20,
        "availBike": 8,
        "address": "广东省中山市中山市市辖区金湾街"
    },
    {
        "id": 1107,
        "name": "平东商业大街南",
        "lat": 22.334063,
        "lng": 113.43331,
        "capacity": 18,
        "availBike": 8,
        "address": "广东省中山市中山市市辖区G105"
    },
    {
        "id": 139,
        "name": "中山党校",
        "lat": 22.502796,
        "lng": 113.41071,
        "capacity": 30,
        "availBike": 22,
        "address": "广东省中山市中山市市辖区起湾道"
    },
    {
        "id": 270,
        "name": "职业技术学院",
        "lat": 22.511024,
        "lng": 113.43365,
        "capacity": 40,
        "availBike": 22,
        "address": "广东省中山市中山市市辖区长江路70"
    },
    {
        "id": 103,
        "name": "富华酒店",
        "lat": 22.521873,
        "lng": 113.365036,
        "capacity": 40,
        "availBike": 16,
        "address": "广东省中山市中山市市辖区升华路17"
    },
    {
        "id": 1009,
        "name": "雅居乐V型牌坊",
        "lat": 22.353142,
        "lng": 113.439514,
        "capacity": 12,
        "availBike": 7,
        "address": "广东省中山市中山市市辖区新冲路15号"
    },
    {
        "id": 159,
        "name": "中山一桥北",
        "lat": 22.517216,
        "lng": 113.36142,
        "capacity": 20,
        "availBike": 12,
        "address": "广东省中山市中山市市辖区江湾路"
    },
    {
        "id": 1173,
        "name": "西山永盛玩具厂",
        "lat": 22.3507,
        "lng": 113.48879,
        "capacity": 20,
        "availBike": 11,
        "address": "广东省中山市中山市市辖区西山路"
    },
    {
        "id": 210,
        "name": "南区市场",
        "lat": 22.48501,
        "lng": 113.35333,
        "capacity": 24,
        "availBike": 16,
        "address": "广东省中山市中山市市辖区西环一路"
    },
    {
        "id": 216,
        "name": "城南客运站",
        "lat": 22.46896,
        "lng": 113.34869,
        "capacity": 28,
        "availBike": 18,
        "address": "广东省中山市中山市市辖区富民一路"
    },
    {
        "id": 1203,
        "name": "白石壹加壹",
        "lat": 22.34834,
        "lng": 113.389885,
        "capacity": 20,
        "availBike": 10,
        "address": "广东省中山市中山市市辖区碧华四路"
    },
    {
        "id": 1361,
        "name": "明阳临海叶片厂",
        "lat": 22.556635,
        "lng": 113.61597,
        "capacity": 20,
        "availBike": 5,
        "address": "广东省中山市中山市市辖区X575"
    },
    {
        "id": 1312,
        "name": "置业路口",
        "lat": 22.560778,
        "lng": 113.44551,
        "capacity": 20,
        "availBike": 12,
        "address": "广东省中山市中山市市辖区沙边路32号"
    },
    {
        "id": 1091,
        "name": "前陇市场",
        "lat": 22.34947,
        "lng": 113.47244,
        "capacity": 20,
        "availBike": 12,
        "address": "广东省中山市中山市市辖区S268"
    },
    {
        "id": 3,
        "name": "水云轩",
        "lat": 22.523863,
        "lng": 113.3987,
        "capacity": 24,
        "availBike": 10,
        "address": "广东省中山市中山市市辖区兴龙街23号"
    },
    {
        "id": 1319,
        "name": "张家边电影院",
        "lat": 22.545994,
        "lng": 113.46202,
        "capacity": 30,
        "availBike": 16,
        "address": "广东省中山市中山市市辖区窈窕村新村一街西7巷-2号"
    },
    {
        "id": 8037,
        "name": "豪日酒店",
        "lat": 22.262636,
        "lng": 113.47517,
        "capacity": 30,
        "availBike": 15,
        "address": "广东省中山市中山市市辖区凤翔街二巷11号"
    },
    {
        "id": 200,
        "name": "交通执法局",
        "lat": 22.497688,
        "lng": 113.3653,
        "capacity": 20,
        "availBike": 5,
        "address": "广东省中山市中山市市辖区城南一路9号"
    },
    {
        "id": 1014,
        "name": "雅湖居公交站北行",
        "lat": 22.35066,
        "lng": 113.44,
        "capacity": 20,
        "availBike": 11,
        "address": "广东省中山市中山市市辖区商业大街409号"
    },
    {
        "id": 8046,
        "name": "欣锠鞋厂",
        "lat": 22.265158,
        "lng": 113.47643,
        "capacity": 28,
        "availBike": 12,
        "address": "广东省中山市中山市市辖区曙光路2-之1"
    },
    {
        "id": 331,
        "name": "蓝波湾小学",
        "lat": 22.51217,
        "lng": 113.35691,
        "capacity": 20,
        "availBike": 5,
        "address": "广东省中山市中山市市辖区翠景道"
    },
    {
        "id": 130,
        "name": "比华利山庄",
        "lat": 22.525877,
        "lng": 113.4056,
        "capacity": 24,
        "availBike": 19,
        "address": "广东省中山市中山市市辖区孙文东路509号"
    },
    {
        "id": 1905,
        "name": "锦绣东方",
        "lat": 22.707277,
        "lng": 113.31871,
        "capacity": 30,
        "availBike": 18,
        "address": "广东省中山市中山市市辖区祥盛路1"
    },
    {
        "id": 1123,
        "name": "文阁塔公园",
        "lat": 22.351791,
        "lng": 113.429695,
        "capacity": 12,
        "availBike": 7,
        "address": "广东省中山市中山市市辖区南堡大街"
    },
    {
        "id": 2009,
        "name": "东岸路口",
        "lat": 22.638157,
        "lng": 113.20632,
        "capacity": 22,
        "availBike": 12,
        "address": "广东省中山市中山市市辖区东厢路66号"
    },
    {
        "id": 115,
        "name": "恒基花园4期",
        "lat": 22.537306,
        "lng": 113.39028,
        "capacity": 20,
        "availBike": 19,
        "address": "广东省中山市中山市市辖区莲塘东路5号"
    },
    {
        "id": 15,
        "name": "朗晴轩",
        "lat": 22.501892,
        "lng": 113.40263,
        "capacity": 24,
        "availBike": 13,
        "address": "广东省中山市中山市市辖区S268(城桂公路)"
    },
    {
        "id": 9,
        "name": "全球通公园东",
        "lat": 22.503155,
        "lng": 113.403984,
        "capacity": 30,
        "availBike": 26,
        "address": "广东省中山市中山市市辖区东苑南路"
    },
    {
        "id": 2025,
        "name": "江边公园",
        "lat": 22.599115,
        "lng": 113.17535,
        "capacity": 26,
        "availBike": 15,
        "address": "广东省江门市江海区S364(新兴大道西)"
    },
    {
        "id": 69,
        "name": "建设街",
        "lat": 22.51547,
        "lng": 113.38311,
        "capacity": 20,
        "availBike": 10,
        "address": "广东省中山市中山市市辖区麻洲街87"
    },
    {
        "id": 1126,
        "name": "新盛世花园",
        "lat": 22.345053,
        "lng": 113.43474,
        "capacity": 18,
        "availBike": 10,
        "address": "广东省中山市中山市市辖区金星路5"
    },
    {
        "id": 2047,
        "name": "海洲医院",
        "lat": 22.666943,
        "lng": 113.17839,
        "capacity": 20,
        "availBike": 5,
        "address": "广东省中山市中山市市辖区西岸北路29"
    },
    {
        "id": 2049,
        "name": "曹二农贸市场",
        "lat": 22.631977,
        "lng": 113.21172,
        "capacity": 30,
        "availBike": 16,
        "address": "广东省中山市中山市市辖区曹三大街永安二巷"
    },
    {
        "id": 2207,
        "name": "海洲健身广场2",
        "lat": 22.609875,
        "lng": 113.214005,
        "capacity": 42,
        "availBike": 24,
        "address": "广东省中山市中山市市辖区华盛东路南3巷"
    },
    {
        "id": 1303,
        "name": "濠头牌坊",
        "lat": 22.524788,
        "lng": 113.42831,
        "capacity": 20,
        "availBike": 3,
        "address": "广东省中山市中山市市辖区中山六路"
    },
    {
        "id": 8040,
        "name": "汇翠山庄",
        "lat": 22.262556,
        "lng": 113.48465,
        "capacity": 32,
        "availBike": 13,
        "address": "广东省中山市中山市市辖区晓阳路11号"
    },
    {
        "id": 1344,
        "name": "璟湖城",
        "lat": 22.514456,
        "lng": 113.44655,
        "capacity": 20,
        "availBike": 0,
        "address": "广东省中山市中山市市辖区博爱七路"
    },
    {
        "id": 76,
        "name": "恒信花园",
        "lat": 22.509602,
        "lng": 113.38043,
        "capacity": 22,
        "availBike": 17,
        "address": "广东省中山市中山市市辖区白石南路33号"
    },
    {
        "id": 137,
        "name": "万家广场",
        "lat": 22.515236,
        "lng": 113.41191,
        "capacity": 40,
        "availBike": 30,
        "address": "广东省中山市中山市市辖区新龙街"
    },
    {
        "id": 85,
        "name": "中山电大",
        "lat": 22.52344,
        "lng": 113.37936,
        "capacity": 20,
        "availBike": 7,
        "address": "广东省中山市中山市市辖区亭子下大街15号"
    },
    {
        "id": 1060,
        "name": "薪愿居二期",
        "lat": 22.363897,
        "lng": 113.430176,
        "capacity": 12,
        "availBike": 7,
        "address": "广东省中山市中山市市辖区麦园下街"
    },
    {
        "id": 1357,
        "name": "中山路赐福山庄",
        "lat": 22.529894,
        "lng": 113.39997,
        "capacity": 30,
        "availBike": 14,
        "address": "广东省中山市中山市市辖区豪源街"
    },
    {
        "id": 1184,
        "name": "外经大楼",
        "lat": 22.357685,
        "lng": 113.43728,
        "capacity": 16,
        "availBike": 9,
        "address": "广东省中山市中山市市辖区环镇路73号"
    },
    {
        "id": 1171,
        "name": "东城花园正门",
        "lat": 22.350279,
        "lng": 113.43681,
        "capacity": 16,
        "availBike": 6,
        "address": "广东省中山市中山市市辖区平东中心路"
    },
    {
        "id": 44,
        "name": "置禾超市",
        "lat": 22.508928,
        "lng": 113.39471,
        "capacity": 24,
        "availBike": 12,
        "address": "广东省中山市中山市市辖区博爱四路38号"
    },
    {
        "id": 122,
        "name": "电机厂",
        "lat": 22.527025,
        "lng": 113.366714,
        "capacity": 20,
        "availBike": 8,
        "address": "广东省中山市中山市市辖区富华道17号"
    },
    {
        "id": 193,
        "name": "槎桥村委",
        "lat": 22.496815,
        "lng": 113.37691,
        "capacity": 30,
        "availBike": 18,
        "address": "广东省中山市中山市市辖区南外环路"
    },
    {
        "id": 250,
        "name": "凯茵公交车总站",
        "lat": 22.506174,
        "lng": 113.465294,
        "capacity": 30,
        "availBike": 15,
        "address": "广东省中山市中山市市辖区福获路"
    },
    {
        "id": 39,
        "name": "建设局",
        "lat": 22.513206,
        "lng": 113.391045,
        "capacity": 26,
        "availBike": 21,
        "address": "广东省中山市中山市市辖区恒宝街"
    },
    {
        "id": 1111,
        "name": "泉林路口",
        "lat": 22.34067,
        "lng": 113.41073,
        "capacity": 16,
        "availBike": 9,
        "address": "广东省中山市中山市市辖区金龙路5号"
    },
    {
        "id": 180,
        "name": "东祥路口",
        "lat": 22.545399,
        "lng": 113.409225,
        "capacity": 20,
        "availBike": 7,
        "address": "广东省中山市中山市市辖区长湾路"
    },
    {
        "id": 333,
        "name": "世纪新城",
        "lat": 22.501583,
        "lng": 113.35164,
        "capacity": 20,
        "availBike": 9,
        "address": "广东省中山市中山市市辖区御溪路"
    },
    {
        "id": 466,
        "name": "中山日报印刷厂",
        "lat": 22.550007,
        "lng": 113.40449,
        "capacity": 34,
        "availBike": 22,
        "address": "广东省中山市中山市市辖区起湾道"
    },
    {
        "id": 1156,
        "name": "吉雅花园",
        "lat": 22.35001,
        "lng": 113.39539,
        "capacity": 16,
        "availBike": 3,
        "address": "广东省中山市中山市市辖区碧华三路"
    },
    {
        "id": 178,
        "name": "长江北大桥",
        "lat": 22.557646,
        "lng": 113.41227,
        "capacity": 20,
        "availBike": 9,
        "address": "广东省中山市中山市市辖区起湾道"
    },
    {
        "id": 379,
        "name": "中海翠林",
        "lat": 22.497637,
        "lng": 113.340416,
        "capacity": 40,
        "availBike": 18,
        "address": "广东省中山市中山市市辖区新濠南路1"
    },
    {
        "id": 23,
        "name": "竹苑路口",
        "lat": 22.5161,
        "lng": 113.397064,
        "capacity": 20,
        "availBike": 20,
        "address": "广东省中山市中山市市辖区兴中道26号"
    },
    {
        "id": 141,
        "name": "博览中心",
        "lat": 22.502922,
        "lng": 113.414566,
        "capacity": 20,
        "availBike": 20,
        "address": "广东省中山市中山市市辖区新环街"
    },
    {
        "id": 1026,
        "name": "壹加壹路口西",
        "lat": 22.356129,
        "lng": 113.43238,
        "capacity": 16,
        "availBike": 5,
        "address": "广东省中山市中山市市辖区北堡一街87号"
    },
    {
        "id": 1351,
        "name": "临海体育休闲广场",
        "lat": 22.57011,
        "lng": 113.585754,
        "capacity": 30,
        "availBike": 12,
        "address": "广东省中山市中山市市辖区X575"
    },
    {
        "id": 1079,
        "name": "雍陌村委",
        "lat": 22.365381,
        "lng": 113.46246,
        "capacity": 12,
        "availBike": 6,
        "address": "广东省中山市中山市市辖区登贤路"
    },
    {
        "id": 205,
        "name": "万科城市风景",
        "lat": 22.492334,
        "lng": 113.35896,
        "capacity": 40,
        "availBike": 12,
        "address": "广东省中山市中山市市辖区文明路35"
    },
    {
        "id": 2038,
        "name": "曹步派出所",
        "lat": 22.632175,
        "lng": 113.20635,
        "capacity": 32,
        "availBike": 16,
        "address": "广东省中山市中山市市辖区曹三大街"
    },
    {
        "id": 916,
        "name": "市一中北门",
        "lat": 22.498566,
        "lng": 113.40498,
        "capacity": 30,
        "availBike": 20,
        "address": "广东省中山市中山市市辖区S268(城桂公路)"
    },
    {
        "id": 470,
        "name": "龙井街兴龙街路口",
        "lat": 22.517654,
        "lng": 113.394485,
        "capacity": 18,
        "availBike": 10,
        "address": "广东省中山市中山市市辖区华厦街79号"
    },
    {
        "id": 1161,
        "name": "三乡市场天桥下",
        "lat": 22.351177,
        "lng": 113.42487,
        "capacity": 28,
        "availBike": 14,
        "address": "广东省中山市中山市市辖区东埠街11号"
    },
    {
        "id": 469,
        "name": "中山市图书馆",
        "lat": 22.517273,
        "lng": 113.39104,
        "capacity": 24,
        "availBike": 14,
        "address": "广东省中山市中山市市辖区华厦街12号"
    },
    {
        "id": 163,
        "name": "德兴火锅",
        "lat": 22.546215,
        "lng": 113.37856,
        "capacity": 20,
        "availBike": 12,
        "address": "广东省中山市中山市市辖区合益路"
    },
    {
        "id": 416,
        "name": "中山市疾控中心",
        "lat": 22.506676,
        "lng": 113.42655,
        "capacity": 30,
        "availBike": 12,
        "address": "广东省中山市中山市市辖区长命水长逸路"
    },
    {
        "id": 1188,
        "name": "曼秀雷敦",
        "lat": 22.34226,
        "lng": 113.41068,
        "capacity": 16,
        "availBike": 11,
        "address": "广东省中山市中山市市辖区飞龙路1"
    },
    {
        "id": 1359,
        "name": "健康花城",
        "lat": 22.529894,
        "lng": 113.39997,
        "capacity": 30,
        "availBike": 11,
        "address": "广东省中山市中山市市辖区豪源街"
    },
    {
        "id": 957,
        "name": "大信新都汇2",
        "lat": 22.533012,
        "lng": 113.38345,
        "capacity": 38,
        "availBike": 6,
        "address": "广东省中山市中山市市辖区紫来大街7号"
    },
    {
        "id": 150,
        "name": "愉翠雅园",
        "lat": 22.516144,
        "lng": 113.35284,
        "capacity": 20,
        "availBike": 4,
        "address": "广东省中山市中山市市辖区博爱一路"
    },
    {
        "id": 71,
        "name": "康乐大街南",
        "lat": 22.514488,
        "lng": 113.38847,
        "capacity": 20,
        "availBike": 7,
        "address": "广东省中山市中山市市辖区体育路8"
    },
    {
        "id": 2022,
        "name": "江南海岸家园",
        "lat": 22.60243,
        "lng": 113.175514,
        "capacity": 40,
        "availBike": 21,
        "address": "广东省江门市江海区S364(新兴大道西)"
    },
    {
        "id": 4,
        "name": "竹苑小学",
        "lat": 22.519098,
        "lng": 113.39916,
        "capacity": 20,
        "availBike": 5,
        "address": "广东省中山市中山市市辖区中山四路19号"
    },
    {
        "id": 1205,
        "name": "金红云花园销售部",
        "lat": 22.346415,
        "lng": 113.451775,
        "capacity": 18,
        "availBike": 7,
        "address": "广东省中山市中山市市辖区鸦岗大街"
    },
    {
        "id": 73,
        "name": "中银大厦",
        "lat": 22.512815,
        "lng": 113.38618,
        "capacity": 30,
        "availBike": 14,
        "address": "广东省中山市中山市市辖区岐关西路39号"
    },
    {
        "id": 165,
        "name": "大信体育公园",
        "lat": 22.552185,
        "lng": 113.388435,
        "capacity": 40,
        "availBike": 14,
        "address": "广东省中山市中山市市辖区东河南路93号"
    },
    {
        "id": 78,
        "name": "路易酒店",
        "lat": 22.50853,
        "lng": 113.38583,
        "capacity": 38,
        "availBike": 18,
        "address": "广东省中山市中山市市辖区进兴路5号"
    },
    {
        "id": 266,
        "name": "沙朗果蔬市场",
        "lat": 22.551395,
        "lng": 113.34704,
        "capacity": 30,
        "availBike": 15,
        "address": "广东省中山市中山市市辖区S268(沙古公路)"
    },
    {
        "id": 463,
        "name": "市公安局",
        "lat": 22.510214,
        "lng": 113.390465,
        "capacity": 28,
        "availBike": 14,
        "address": "广东省中山市中山市市辖区博爱四路"
    },
    {
        "id": 1150,
        "name": "壹加壹路口北",
        "lat": 22.356808,
        "lng": 113.432526,
        "capacity": 20,
        "availBike": 6,
        "address": "广东省中山市中山市市辖区新市街21号"
    },
    {
        "id": 177,
        "name": "起湾沙路路口",
        "lat": 22.54833,
        "lng": 113.410706,
        "capacity": 20,
        "availBike": 12,
        "address": "广东省中山市中山市市辖区康湾路16号"
    },
    {
        "id": 2043,
        "name": "海洲初级中学",
        "lat": 22.658197,
        "lng": 113.176796,
        "capacity": 30,
        "availBike": 13,
        "address": "广东省中山市中山市市辖区荷塘马滘大桥"
    },
    {
        "id": 1194,
        "name": "城桂工业中心",
        "lat": 22.372791,
        "lng": 113.442375,
        "capacity": 20,
        "availBike": 6,
        "address": "广东省中山市中山市市辖区沙岗大街"
    },
    {
        "id": 1040,
        "name": "皇冠花园",
        "lat": 22.348022,
        "lng": 113.41752,
        "capacity": 20,
        "availBike": 11,
        "address": "广东省中山市中山市市辖区G105"
    },
    {
        "id": 1902,
        "name": "水上公园",
        "lat": 22.703651,
        "lng": 113.28891,
        "capacity": 40,
        "availBike": 23,
        "address": "广东省中山市中山市市辖区穗成路"
    },
    {
        "id": 45,
        "name": "体育场东",
        "lat": 22.507496,
        "lng": 113.39014,
        "capacity": 40,
        "availBike": 19,
        "address": "广东省中山市中山市市辖区沙岗正街161号"
    },
    {
        "id": 1192,
        "name": "丽景小区",
        "lat": 22.35994,
        "lng": 113.43128,
        "capacity": 16,
        "availBike": 4,
        "address": "广东省中山市中山市市辖区南宁街"
    },
    {
        "id": 1127,
        "name": "平东小学",
        "lat": 22.344545,
        "lng": 113.43465,
        "capacity": 16,
        "availBike": 6,
        "address": "广东省中山市中山市市辖区金星路5"
    },
    {
        "id": 332,
        "name": "世纪新城销售部",
        "lat": 22.505669,
        "lng": 113.35232,
        "capacity": 30,
        "availBike": 20,
        "address": "广东省中山市中山市市辖区沙岗正街新1巷-1号"
    },
    {
        "id": 1047,
        "name": "圩仔居委会公园",
        "lat": 22.350328,
        "lng": 113.427284,
        "capacity": 12,
        "availBike": 5,
        "address": "广东省中山市中山市市辖区鸿埠园路47号"
    },
    {
        "id": 28,
        "name": "大东裕大厦",
        "lat": 22.502213,
        "lng": 113.398445,
        "capacity": 40,
        "availBike": 33,
        "address": "广东省中山市中山市市辖区S268(城桂公路)"
    },
    {
        "id": 148,
        "name": "蓝波湾小区",
        "lat": 22.508032,
        "lng": 113.35391,
        "capacity": 30,
        "availBike": 10,
        "address": "广东省中山市中山市市辖区高亮原路"
    },
    {
        "id": 2020,
        "name": "古镇车站",
        "lat": 22.625404,
        "lng": 113.1878,
        "capacity": 24,
        "availBike": 12,
        "address": "广东省中山市中山市市辖区大街塘路1号"
    },
    {
        "id": 8045,
        "name": "七村社区",
        "lat": 22.268255,
        "lng": 113.48847,
        "capacity": 30,
        "availBike": 11,
        "address": "广东省中山市中山市市辖区同贺街一巷"
    },
    {
        "id": 1904,
        "name": "穗西社区",
        "lat": 22.69731,
        "lng": 113.30083,
        "capacity": 40,
        "availBike": 23,
        "address": "广东省中山市中山市市辖区安民西路"
    },
    {
        "id": 392,
        "name": "远洋城别墅",
        "lat": 22.497986,
        "lng": 113.41432,
        "capacity": 30,
        "availBike": 22,
        "address": "广东省中山市中山市市辖区起湾道"
    },
    {
        "id": 111,
        "name": "东明花园",
        "lat": 22.541021,
        "lng": 113.38821,
        "capacity": 20,
        "availBike": 6,
        "address": "广东省中山市中山市市辖区民强下街48号"
    },
    {
        "id": 465,
        "name": "石岐创业园",
        "lat": 22.559587,
        "lng": 113.39877,
        "capacity": 30,
        "availBike": 18,
        "address": "广东省中山市中山市市辖区兴顺路"
    },
    {
        "id": 2042,
        "name": "古镇高级中学",
        "lat": 22.654467,
        "lng": 113.17311,
        "capacity": 50,
        "availBike": 29,
        "address": "广东省中山市中山市市辖区东堤三路"
    },
    {
        "id": 142,
        "name": "博览中心南门",
        "lat": 22.500422,
        "lng": 113.415924,
        "capacity": 20,
        "availBike": 17,
        "address": "广东省中山市中山市市辖区新环街"
    },
    {
        "id": 1346,
        "name": "临海工业园宿舍区",
        "lat": 22.556952,
        "lng": 113.59797,
        "capacity": 30,
        "availBike": 0,
        "address": "广东省中山市中山市市辖区"
    },
    {
        "id": 1104,
        "name": "鸦岗市场",
        "lat": 22.337828,
        "lng": 113.449196,
        "capacity": 20,
        "availBike": 6,
        "address": "广东省中山市中山市市辖区G105"
    },
    {
        "id": 1093,
        "name": "水截头公交站",
        "lat": 22.336308,
        "lng": 113.47553,
        "capacity": 14,
        "availBike": 5,
        "address": "广东省中山市中山市市辖区大桥北街"
    },
    {
        "id": 68,
        "name": "松苑壹加壹",
        "lat": 22.51631,
        "lng": 113.38879,
        "capacity": 24,
        "availBike": 9,
        "address": "广东省中山市中山市市辖区怡华街"
    },
    {
        "id": 8023,
        "name": "坦洲旧市场",
        "lat": 22.259378,
        "lng": 113.46302,
        "capacity": 42,
        "availBike": 25,
        "address": "广东省中山市中山市市辖区太和路91号"
    },
    {
        "id": 253,
        "name": "眼科医院",
        "lat": 22.527859,
        "lng": 113.36229,
        "capacity": 20,
        "availBike": 12,
        "address": "广东省中山市中山市市辖区富华道282号"
    },
    {
        "id": 1901,
        "name": "南头公园",
        "lat": 22.716412,
        "lng": 113.292854,
        "capacity": 40,
        "availBike": 22,
        "address": "广东省中山市中山市市辖区南和东路168号"
    },
    {
        "id": 56,
        "name": "莲兴酒店",
        "lat": 22.53141,
        "lng": 113.38556,
        "capacity": 20,
        "availBike": 0,
        "address": "广东省中山市中山市市辖区太平路101号"
    },
    {
        "id": 190,
        "name": "延龄路",
        "lat": 22.52663,
        "lng": 113.37685,
        "capacity": 21,
        "availBike": 8,
        "address": "广东省中山市中山市市辖区悦来正街18号"
    },
    {
        "id": 1159,
        "name": "三合村口",
        "lat": 22.352835,
        "lng": 113.38303,
        "capacity": 16,
        "availBike": 6,
        "address": "广东省中山市中山市市辖区碧华大道69"
    },
    {
        "id": 1308,
        "name": "纬创科技软件园",
        "lat": 22.567514,
        "lng": 113.45263,
        "capacity": 40,
        "availBike": 24,
        "address": "广东省中山市中山市市辖区置业路"
    },
    {
        "id": 457,
        "name": "天水湖西门",
        "lat": 22.557331,
        "lng": 113.3965,
        "capacity": 28,
        "availBike": 15,
        "address": "广东省中山市中山市市辖区江滨西路"
    },
    {
        "id": 1201,
        "name": "泉眼路口",
        "lat": 22.350164,
        "lng": 113.447525,
        "capacity": 16,
        "availBike": 7,
        "address": "广东省中山市中山市市辖区上下李路"
    },
    {
        "id": 1180,
        "name": "新城岚晴站",
        "lat": 22.358149,
        "lng": 113.44784,
        "capacity": 20,
        "availBike": 15,
        "address": "广东省中山市中山市市辖区新城路"
    },
    {
        "id": 384,
        "name": "城管局直属分局",
        "lat": 22.520258,
        "lng": 113.38379,
        "capacity": 20,
        "availBike": 7,
        "address": "广东省中山市中山市市辖区中山二路47号"
    },
    {
        "id": 933,
        "name": "假日广场2",
        "lat": 22.520525,
        "lng": 113.39047,
        "capacity": 30,
        "availBike": 22,
        "address": "广东省中山市中山市市辖区中山三路10-12号"
    },
    {
        "id": 8029,
        "name": "工业大道中",
        "lat": 22.257118,
        "lng": 113.47006,
        "capacity": 32,
        "availBike": 11,
        "address": "广东省中山市中山市市辖区工业大道"
    },
    {
        "id": 409,
        "name": "安山牌坊",
        "lat": 22.509962,
        "lng": 113.36682,
        "capacity": 30,
        "availBike": 10,
        "address": "广东省中山市中山市市辖区悦凯路3"
    },
    {
        "id": 212,
        "name": "恒美村",
        "lat": 22.475182,
        "lng": 113.35012,
        "capacity": 30,
        "availBike": 15,
        "address": "广东省中山市中山市市辖区先施二路"
    },
    {
        "id": 186,
        "name": "长洲公园",
        "lat": 22.524345,
        "lng": 113.35715,
        "capacity": 30,
        "availBike": 12,
        "address": "广东省中山市中山市市辖区翠景道南三号C6"
    },
    {
        "id": 8010,
        "name": "星洲花园",
        "lat": 22.279037,
        "lng": 113.46418,
        "capacity": 30,
        "availBike": 8,
        "address": "广东省中山市中山市市辖区永前路"
    },
    {
        "id": 166,
        "name": "民科东路口",
        "lat": 22.55673,
        "lng": 113.390785,
        "capacity": 20,
        "availBike": 10,
        "address": "广东省中山市中山市市辖区兴畅路8"
    },
    {
        "id": 1075,
        "name": "阿洛奇美帝",
        "lat": 22.373095,
        "lng": 113.43083,
        "capacity": 20,
        "availBike": 12,
        "address": "广东省中山市中山市市辖区小琅环路"
    },
    {
        "id": 1032,
        "name": "宝元鞋厂南门",
        "lat": 22.361446,
        "lng": 113.43788,
        "capacity": 24,
        "availBike": 15,
        "address": "广东省中山市中山市市辖区文昌中路138"
    },
    {
        "id": 138,
        "name": "东区办事处",
        "lat": 22.515768,
        "lng": 113.415985,
        "capacity": 24,
        "availBike": 18,
        "address": "广东省中山市中山市市辖区紫新中街"
    },
    {
        "id": 209,
        "name": "星华路日华路路口",
        "lat": 22.483154,
        "lng": 113.35916,
        "capacity": 30,
        "availBike": 16,
        "address": "广东省中山市中山市市辖区南宝大街"
    },
    {
        "id": 126,
        "name": "悦来南路南安路口",
        "lat": 22.509857,
        "lng": 113.369286,
        "capacity": 30,
        "availBike": 8,
        "address": "广东省中山市中山市市辖区星宝街46号"
    },
    {
        "id": 8047,
        "name": "曙光路中",
        "lat": 22.259338,
        "lng": 113.469604,
        "capacity": 30,
        "availBike": 13,
        "address": "广东省中山市中山市市辖区永康路"
    },
    {
        "id": 91,
        "name": "民权路中",
        "lat": 22.516144,
        "lng": 113.37283,
        "capacity": 22,
        "availBike": 4,
        "address": "广东省中山市中山市市辖区南安路23号"
    },
    {
        "id": 1031,
        "name": "柏丽广场北",
        "lat": 22.359661,
        "lng": 113.436584,
        "capacity": 10,
        "availBike": 4,
        "address": "广东省中山市中山市市辖区林屋门前13号"
    },
    {
        "id": 1058,
        "name": "三乡车站",
        "lat": 22.35866,
        "lng": 113.43536,
        "capacity": 16,
        "availBike": 8,
        "address": "广东省中山市中山市市辖区财帛街8号"
    },
    {
        "id": 1307,
        "name": "窈窕",
        "lat": 22.538046,
        "lng": 113.45685,
        "capacity": 20,
        "availBike": 9,
        "address": "广东省中山市中山市市辖区Y004(江陵西路)"
    },
    {
        "id": 13,
        "name": "盛景酒店",
        "lat": 22.509218,
        "lng": 113.40168,
        "capacity": 22,
        "availBike": 0,
        "address": "广东省中山市中山市市辖区塘贝街12号"
    },
    {
        "id": 1081,
        "name": "雍陌中心公园",
        "lat": 22.366543,
        "lng": 113.463135,
        "capacity": 12,
        "availBike": 7,
        "address": "广东省中山市中山市市辖区登贤路"
    },
    {
        "id": 467,
        "name": "洋角口村",
        "lat": 22.560354,
        "lng": 113.40341,
        "capacity": 32,
        "availBike": 13,
        "address": "广东省中山市中山市市辖区民科东路A23"
    },
    {
        "id": 179,
        "name": "白沙湾驿站",
        "lat": 22.561375,
        "lng": 113.41095,
        "capacity": 30,
        "availBike": 16,
        "address": "广东省中山市中山市市辖区起湾道"
    },
    {
        "id": 1320,
        "name": "张家边一幼",
        "lat": 22.54311,
        "lng": 113.46872,
        "capacity": 20,
        "availBike": 10,
        "address": "广东省中山市中山市市辖区港城路32号"
    },
    {
        "id": 1349,
        "name": "临海马安村路口",
        "lat": 22.571814,
        "lng": 113.58336,
        "capacity": 20,
        "availBike": 10,
        "address": "广东省中山市中山市市辖区X575"
    },
    {
        "id": 2037,
        "name": "曹一公园1",
        "lat": 22.62955,
        "lng": 113.19447,
        "capacity": 40,
        "availBike": 0,
        "address": "广东省中山市中山市市辖区曹兴西路11号"
    },
    {
        "id": 2041,
        "name": "南方绿博园",
        "lat": 22.650915,
        "lng": 113.19346,
        "capacity": 26,
        "availBike": 13,
        "address": "广东省中山市中山市市辖区中兴大道北"
    },
    {
        "id": 8033,
        "name": "壹加壹(坦神路)",
        "lat": 22.26482,
        "lng": 113.47268,
        "capacity": 40,
        "availBike": 24,
        "address": "广东省中山市中山市市辖区南州路桥头巷"
    },
    {
        "id": 1027,
        "name": "雅居乐钟楼",
        "lat": 22.35659,
        "lng": 113.43329,
        "capacity": 20,
        "availBike": 10,
        "address": "广东省中山市中山市市辖区环镇路17-1号"
    },
    {
        "id": 1324,
        "name": "江尾头市场",
        "lat": 22.537971,
        "lng": 113.47104,
        "capacity": 16,
        "availBike": 8,
        "address": "广东省中山市中山市市辖区港城路"
    },
    {
        "id": 364,
        "name": "南区办事处",
        "lat": 22.485453,
        "lng": 113.35597,
        "capacity": 40,
        "availBike": 18,
        "address": "广东省中山市中山市市辖区城南三路2号"
    },
    {
        "id": 1302,
        "name": "濠东小区",
        "lat": 22.523409,
        "lng": 113.42228,
        "capacity": 20,
        "availBike": 0,
        "address": "广东省中山市中山市市辖区逸东路"
    },
    {
        "id": 17,
        "name": "一中南",
        "lat": 22.491827,
        "lng": 113.40153,
        "capacity": 40,
        "availBike": 25,
        "address": "广东省中山市中山市市辖区新安路"
    },
    {
        "id": 1328,
        "name": "行政服务中心",
        "lat": 22.558517,
        "lng": 113.47979,
        "capacity": 30,
        "availBike": 15,
        "address": "广东省中山市中山市市辖区石牛西路"
    },
    {
        "id": 1353,
        "name": "新佳能",
        "lat": 22.54974,
        "lng": 113.52351,
        "capacity": 30,
        "availBike": 17,
        "address": "广东省中山市中山市市辖区西就路"
    },
    {
        "id": 252,
        "name": "凯茵新城雅豪坊",
        "lat": 22.507126,
        "lng": 113.457054,
        "capacity": 16,
        "availBike": 6,
        "address": "广东省中山市中山市市辖区南外环路"
    },
    {
        "id": 8008,
        "name": "坦洲公安分局",
        "lat": 22.277727,
        "lng": 113.46332,
        "capacity": 28,
        "availBike": 11,
        "address": "广东省中山市中山市市辖区永前路"
    },
    {
        "id": 37,
        "name": "市政府东",
        "lat": 22.5161,
        "lng": 113.39438,
        "capacity": 22,
        "availBike": 13,
        "address": "广东省中山市中山市市辖区体育街12号"
    },
    {
        "id": 1350,
        "name": "临海纬创科技园",
        "lat": 22.562382,
        "lng": 113.590096,
        "capacity": 30,
        "availBike": 14,
        "address": "广东省中山市中山市市辖区X573"
    },
    {
        "id": 396,
        "name": "六冲",
        "lat": 22.562105,
        "lng": 113.3363,
        "capacity": 26,
        "availBike": 13,
        "address": "广东省中山市中山市市辖区盈通工业路"
    },
    {
        "id": 143,
        "name": "小鳌溪驿站",
        "lat": 22.506407,
        "lng": 113.42329,
        "capacity": 30,
        "availBike": 15,
        "address": "广东省中山市中山市市辖区兴文路"
    },
    {
        "id": 1326,
        "name": "华佗山公园",
        "lat": 22.53987,
        "lng": 113.481346,
        "capacity": 30,
        "availBike": 15,
        "address": "广东省中山市中山市市辖区S111(逸仙路)"
    },
    {
        "id": 50,
        "name": "孙文公园",
        "lat": 22.500193,
        "lng": 113.39067,
        "capacity": 22,
        "availBike": 9,
        "address": "广东省中山市中山市市辖区新安路"
    },
    {
        "id": 40,
        "name": "库充北",
        "lat": 22.51238,
        "lng": 113.394,
        "capacity": 30,
        "availBike": 25,
        "address": "广东省中山市中山市市辖区银通街"
    },
    {
        "id": 1050,
        "name": "三乡市场公交站",
        "lat": 22.350725,
        "lng": 113.424,
        "capacity": 20,
        "availBike": 8,
        "address": "广东省中山市中山市市辖区鸿埠园路十巷"
    },
    {
        "id": 248,
        "name": "凯茵新城碧云天",
        "lat": 22.501059,
        "lng": 113.45566,
        "capacity": 18,
        "availBike": 8,
        "address": "广东省中山市中山市市辖区景观路"
    },
    {
        "id": 74,
        "name": "岐关西",
        "lat": 22.51232,
        "lng": 113.381134,
        "capacity": 30,
        "availBike": 20,
        "address": "广东省中山市中山市市辖区南江街6号"
    },
    {
        "id": 1007,
        "name": "景观一品东南侧",
        "lat": 22.361204,
        "lng": 113.443085,
        "capacity": 16,
        "availBike": 9,
        "address": "广东省中山市中山市市辖区兴业路"
    },
    {
        "id": 1333,
        "name": "群英华庭",
        "lat": 22.556349,
        "lng": 113.48691,
        "capacity": 20,
        "availBike": 5,
        "address": "广东省中山市中山市市辖区同乐东路"
    },
    {
        "id": 14,
        "name": "全球通公园西",
        "lat": 22.502151,
        "lng": 113.401375,
        "capacity": 20,
        "availBike": 12,
        "address": "广东省中山市中山市市辖区S268(城桂公路)"
    },
    {
        "id": 1096,
        "name": "古鹤村祠堂",
        "lat": 22.32086,
        "lng": 113.47666,
        "capacity": 16,
        "availBike": 7,
        "address": "广东省中山市中山市市辖区兴业路"
    },
    {
        "id": 1334,
        "name": "外语学校",
        "lat": 22.551945,
        "lng": 113.49464,
        "capacity": 20,
        "availBike": 6,
        "address": "广东省中山市中山市市辖区港义路"
    },
    {
        "id": 2046,
        "name": "海洲文化活动中心",
        "lat": 22.66485,
        "lng": 113.18295,
        "capacity": 16,
        "availBike": 3,
        "address": "广东省中山市中山市市辖区沙源中心大道东"
    },
    {
        "id": 2937,
        "name": "曹一公园2",
        "lat": 22.609875,
        "lng": 113.214005,
        "capacity": 20,
        "availBike": 12,
        "address": "广东省中山市中山市市辖区华盛东路南3巷"
    },
    {
        "id": 100,
        "name": "永胜数码广场",
        "lat": 22.517036,
        "lng": 113.3665,
        "capacity": 20,
        "availBike": 5,
        "address": "广东省中山市中山市市辖区蓝波路"
    },
    {
        "id": 124,
        "name": "南安路西",
        "lat": 22.50994,
        "lng": 113.364334,
        "capacity": 30,
        "availBike": 9,
        "address": "广东省中山市中山市市辖区华光路93号"
    },
    {
        "id": 249,
        "name": "凯茵新城销售部",
        "lat": 22.501574,
        "lng": 113.46081,
        "capacity": 18,
        "availBike": 4,
        "address": "广东省中山市中山市市辖区福获路"
    },
    {
        "id": 1177,
        "name": "逸湖居",
        "lat": 22.344599,
        "lng": 113.4467,
        "capacity": 20,
        "availBike": 8,
        "address": "广东省中山市中山市市辖区兴隆路"
    },
    {
        "id": 1120,
        "name": "平南林堡公园",
        "lat": 22.34431,
        "lng": 113.424225,
        "capacity": 18,
        "availBike": 6,
        "address": "广东省中山市中山市市辖区G105"
    },
    {
        "id": 1166,
        "name": "平南村路口",
        "lat": 22.349173,
        "lng": 113.422485,
        "capacity": 20,
        "availBike": 9,
        "address": "广东省中山市中山市市辖区鸿埠园路十巷"
    },
    {
        "id": 11,
        "name": "竹苑壹加壹",
        "lat": 22.5161,
        "lng": 113.39913,
        "capacity": 40,
        "availBike": 30,
        "address": "广东省中山市中山市市辖区翠盈街93号"
    },
    {
        "id": 2004,
        "name": "古镇灯饰大厦",
        "lat": 22.614212,
        "lng": 113.19193,
        "capacity": 30,
        "availBike": 18,
        "address": "广东省中山市中山市市辖区新兴中路52号"
    },
    {
        "id": 140,
        "name": "帝璟东方",
        "lat": 22.498838,
        "lng": 113.40849,
        "capacity": 30,
        "availBike": 24,
        "address": "广东省中山市中山市市辖区S268(城桂公路)"
    },
    {
        "id": 256,
        "name": "新中医院东",
        "lat": 22.53868,
        "lng": 113.35492,
        "capacity": 20,
        "availBike": 15,
        "address": "广东省中山市中山市市辖区翠景道"
    },
    {
        "id": 1179,
        "name": "茅湾下架工业区",
        "lat": 22.329517,
        "lng": 113.450485,
        "capacity": 16,
        "availBike": 9,
        "address": "广东省中山市中山市市辖区广湾街"
    },
    {
        "id": 88,
        "name": "民生路天桥",
        "lat": 22.513945,
        "lng": 113.376434,
        "capacity": 30,
        "availBike": 0,
        "address": "广东省中山市中山市市辖区南江路12号"
    },
    {
        "id": 461,
        "name": "碧海名苑",
        "lat": 22.554588,
        "lng": 113.39872,
        "capacity": 30,
        "availBike": 15,
        "address": "广东省中山市中山市市辖区东明路"
    },
    {
        "id": 1168,
        "name": "雅岗村路口",
        "lat": 22.341402,
        "lng": 113.44936,
        "capacity": 16,
        "availBike": 13,
        "address": "广东省中山市中山市市辖区鸦岗大街"
    },
    {
        "id": 1002,
        "name": "富和名都",
        "lat": 22.365952,
        "lng": 113.448006,
        "capacity": 20,
        "availBike": 8,
        "address": "广东省中山市中山市市辖区景观大道2"
    },
    {
        "id": 2023,
        "name": "鹏泰购物广场",
        "lat": 22.617838,
        "lng": 113.17894,
        "capacity": 28,
        "availBike": 0,
        "address": "广东省中山市中山市市辖区北二路18号"
    },
    {
        "id": 1046,
        "name": "雍陌市场",
        "lat": 22.365574,
        "lng": 113.45875,
        "capacity": 24,
        "availBike": 16,
        "address": "广东省中山市中山市市辖区新安路"
    },
    {
        "id": 182,
        "name": "民权路东",
        "lat": 22.516106,
        "lng": 113.3753,
        "capacity": 24,
        "availBike": 12,
        "address": "广东省中山市中山市市辖区悦来南路13"
    },
    {
        "id": 8027,
        "name": "怡乐园",
        "lat": 22.251474,
        "lng": 113.469246,
        "capacity": 30,
        "availBike": 13,
        "address": "广东省中山市中山市市辖区稔胜街"
    },
    {
        "id": 362,
        "name": "金水湾",
        "lat": 22.492872,
        "lng": 113.35509,
        "capacity": 40,
        "availBike": 19,
        "address": "广东省中山市中山市市辖区昌盛路"
    },
    {
        "id": 8011,
        "name": "锦绣阳光",
        "lat": 22.278402,
        "lng": 113.46568,
        "capacity": 30,
        "availBike": 13,
        "address": "广东省中山市中山市市辖区工农新村86号"
    },
    {
        "id": 1149,
        "name": "乌石下园仔",
        "lat": 22.358772,
        "lng": 113.42881,
        "capacity": 16,
        "availBike": 4,
        "address": "广东省中山市中山市市辖区康乐路29号"
    },
    {
        "id": 446,
        "name": "蓝波水岸",
        "lat": 22.512081,
        "lng": 113.35911,
        "capacity": 30,
        "availBike": 12,
        "address": "广东省中山市中山市市辖区翠景道"
    },
    {
        "id": 8003,
        "name": "市民广场南",
        "lat": 22.273834,
        "lng": 113.46229,
        "capacity": 30,
        "availBike": 12,
        "address": "广东省中山市中山市市辖区德溪路"
    },
    {
        "id": 77,
        "name": "国元证券",
        "lat": 22.5093,
        "lng": 113.383064,
        "capacity": 20,
        "availBike": 11,
        "address": "广东省中山市中山市市辖区Y007(广珠公路)"
    },
    {
        "id": 246,
        "name": "金柏酒店",
        "lat": 22.516916,
        "lng": 113.35781,
        "capacity": 30,
        "availBike": 15,
        "address": "广东省中山市中山市市辖区翠景道"
    },
    {
        "id": 1001,
        "name": "大布工业中心",
        "lat": 22.366243,
        "lng": 113.44592,
        "capacity": 16,
        "availBike": 8,
        "address": "广东省中山市中山市市辖区建设路15-之12号"
    },
    {
        "id": 2002,
        "name": "乐加福",
        "lat": 22.609259,
        "lng": 113.217926,
        "capacity": 30,
        "availBike": 21,
        "address": "广东省中山市中山市市辖区恒福路"
    },
    {
        "id": 104,
        "name": "喜来登酒店",
        "lat": 22.519297,
        "lng": 113.36545,
        "capacity": 30,
        "availBike": 10,
        "address": "广东省中山市中山市市辖区升华路"
    },
    {
        "id": 8024,
        "name": "宏景园",
        "lat": 22.255726,
        "lng": 113.465164,
        "capacity": 22,
        "availBike": 7,
        "address": "广东省中山市中山市市辖区新一街"
    },
    {
        "id": 106,
        "name": "沙岗墟",
        "lat": 22.53391,
        "lng": 113.40017,
        "capacity": 38,
        "availBike": 22,
        "address": "广东省中山市中山市市辖区富康路37号2楼"
    },
    {
        "id": 5,
        "name": "盛景园北",
        "lat": 22.515434,
        "lng": 113.40071,
        "capacity": 20,
        "availBike": 18,
        "address": "广东省中山市中山市市辖区库充大街西4幢"
    },
    {
        "id": 1087,
        "name": "塘敢社区卫生服务",
        "lat": 22.360529,
        "lng": 113.47917,
        "capacity": 20,
        "availBike": 6,
        "address": "广东省中山市中山市市辖区Y003"
    },
    {
        "id": 1183,
        "name": "博爱中学",
        "lat": 22.36504,
        "lng": 113.47114,
        "capacity": 20,
        "availBike": 7,
        "address": "广东省中山市中山市市辖区雍泉路"
    },
    {
        "id": 174,
        "name": "白沙湾",
        "lat": 22.535906,
        "lng": 113.409836,
        "capacity": 20,
        "availBike": 8,
        "address": "广东省中山市中山市市辖区月湾路49号-2楼"
    },
    {
        "id": 151,
        "name": "西区政府",
        "lat": 22.519436,
        "lng": 113.35702,
        "capacity": 30,
        "availBike": 14,
        "address": "广东省中山市中山市市辖区翠景道"
    },
    {
        "id": 8004,
        "name": "实验中学",
        "lat": 22.274311,
        "lng": 113.46075,
        "capacity": 40,
        "availBike": 15,
        "address": "广东省中山市中山市市辖区九围街"
    },
    {
        "id": 1065,
        "name": "水乡居公交站",
        "lat": 22.364935,
        "lng": 113.46816,
        "capacity": 16,
        "availBike": 7,
        "address": "广东省中山市中山市市辖区雍泉路"
    },
    {
        "id": 86,
        "name": "中山纪念堂",
        "lat": 22.521458,
        "lng": 113.37669,
        "capacity": 30,
        "availBike": 17,
        "address": "广东省中山市中山市市辖区民权路35号"
    },
    {
        "id": 8007,
        "name": "皇爵广场",
        "lat": 22.27721,
        "lng": 113.46268,
        "capacity": 30,
        "availBike": 14,
        "address": "广东省中山市中山市市辖区永前路"
    },
    {
        "id": 8030,
        "name": "建设银行(汇昌)",
        "lat": 22.261051,
        "lng": 113.475685,
        "capacity": 40,
        "availBike": 12,
        "address": "广东省中山市中山市市辖区工业大道68号"
    },
    {
        "id": 155,
        "name": "西区供电公司",
        "lat": 22.520897,
        "lng": 113.35525,
        "capacity": 30,
        "availBike": 17,
        "address": "广东省中山市中山市市辖区西河东路"
    },
    {
        "id": 1021,
        "name": "东峻华庭售楼中心",
        "lat": 22.339586,
        "lng": 113.42842,
        "capacity": 16,
        "availBike": 9,
        "address": "广东省中山市中山市市辖区G105"
    },
    {
        "id": 8012,
        "name": "锦绣车站",
        "lat": 22.276337,
        "lng": 113.46706,
        "capacity": 22,
        "availBike": 8,
        "address": "广东省中山市中山市市辖区工农新村73号"
    },
    {
        "id": 49,
        "name": "文化艺术中心",
        "lat": 22.50229,
        "lng": 113.39239,
        "capacity": 20,
        "availBike": 10,
        "address": "广东省中山市中山市市辖区公园路"
    },
    {
        "id": 118,
        "name": "北区公园",
        "lat": 22.535471,
        "lng": 113.389336,
        "capacity": 40,
        "availBike": 31,
        "address": "广东省中山市中山市市辖区兴业街59号"
    },
    {
        "id": 2,
        "name": "香格里拉酒店",
        "lat": 22.527214,
        "lng": 113.39964,
        "capacity": 24,
        "availBike": 0,
        "address": "广东省中山市中山市市辖区豪杰街"
    },
    {
        "id": 1158,
        "name": "碧华牌坊",
        "lat": 22.349281,
        "lng": 113.38525,
        "capacity": 16,
        "availBike": 10,
        "address": "广东省中山市中山市市辖区碧华四路"
    },
    {
        "id": 2031,
        "name": "古三壹加壹",
        "lat": 22.618181,
        "lng": 113.17571,
        "capacity": 40,
        "availBike": 20,
        "address": "广东省中山市中山市市辖区X532(中兴四路)"
    },
    {
        "id": 273,
        "name": "检验检疫局",
        "lat": 22.517754,
        "lng": 113.42179,
        "capacity": 20,
        "availBike": 15,
        "address": "广东省中山市中山市市辖区后塘路"
    },
    {
        "id": 8034,
        "name": "杰士美广场",
        "lat": 22.265396,
        "lng": 113.47145,
        "capacity": 30,
        "availBike": 12,
        "address": "广东省中山市中山市市辖区南洲大路一巷3号"
    },
    {
        "id": 8035,
        "name": "民康路中",
        "lat": 22.262278,
        "lng": 113.46862,
        "capacity": 28,
        "availBike": 8,
        "address": "广东省中山市中山市市辖区永康路9号"
    },
    {
        "id": 160,
        "name": "中山一桥下",
        "lat": 22.51438,
        "lng": 113.361786,
        "capacity": 20,
        "availBike": 15,
        "address": "广东省中山市中山市市辖区中山二桥"
    },
    {
        "id": 1015,
        "name": "理工学校",
        "lat": 22.347239,
        "lng": 113.443726,
        "capacity": 40,
        "availBike": 20,
        "address": "广东省中山市中山市市辖区东岗路"
    },
    {
        "id": 1330,
        "name": "开发区建委",
        "lat": 22.565294,
        "lng": 113.47848,
        "capacity": 26,
        "availBike": 6,
        "address": "广东省中山市中山市市辖区得能西路12"
    },
    {
        "id": 1347,
        "name": "临海中船基地",
        "lat": 22.544071,
        "lng": 113.61271,
        "capacity": 30,
        "availBike": 26,
        "address": "广东省中山市中山市市辖区X575"
    },
    {
        "id": 8002,
        "name": "汇乔花园",
        "lat": 22.272247,
        "lng": 113.463234,
        "capacity": 36,
        "availBike": 10,
        "address": "广东省中山市中山市市辖区德溪路"
    },
    {
        "id": 108,
        "name": "岐乐花园",
        "lat": 22.534597,
        "lng": 113.39596,
        "capacity": 30,
        "availBike": 15,
        "address": "广东省中山市中山市市辖区大陂东街21号"
    },
    {
        "id": 1355,
        "name": "陵岗村",
        "lat": 22.52788,
        "lng": 113.4389,
        "capacity": 20,
        "availBike": 12,
        "address": "广东省中山市中山市市辖区中山六路"
    },
    {
        "id": 1125,
        "name": "桂山中学",
        "lat": 22.35078,
        "lng": 113.429924,
        "capacity": 16,
        "availBike": 9,
        "address": "广东省中山市中山市市辖区林堡街"
    },
    {
        "id": 1360,
        "name": "火炬区太阳城",
        "lat": 22.549974,
        "lng": 133.4887,
        "capacity": 50,
        "availBike": 20,
        "address": ""
    },
    {
        "id": 1323,
        "name": "皇爵酒店",
        "lat": 22.534817,
        "lng": 113.460266,
        "capacity": 20,
        "availBike": 4,
        "address": "广东省中山市中山市市辖区大博街"
    },
    {
        "id": 1112,
        "name": "南龙市场",
        "lat": 22.336084,
        "lng": 113.40492,
        "capacity": 12,
        "availBike": 9,
        "address": "广东省中山市中山市市辖区金龙路"
    },
    {
        "id": 1338,
        "name": "健康基地",
        "lat": 22.565939,
        "lng": 113.51415,
        "capacity": 30,
        "availBike": 12,
        "address": "广东省中山市中山市市辖区欧亚路"
    },
    {
        "id": 2012,
        "name": "四海百货1",
        "lat": 22.611584,
        "lng": 113.189445,
        "capacity": 40,
        "availBike": 20,
        "address": "广东省中山市中山市市辖区裕豪新村四大街21号"
    },
    {
        "id": 1061,
        "name": "悦景园",
        "lat": 22.334,
        "lng": 113.45722,
        "capacity": 20,
        "availBike": 14,
        "address": "广东省中山市中山市市辖区广湾街13号"
    },
    {
        "id": 1317,
        "name": "火炬职院",
        "lat": 22.553469,
        "lng": 113.46139,
        "capacity": 30,
        "availBike": 20,
        "address": "广东省中山市中山市市辖区伟业路"
    },
    {
        "id": 1337,
        "name": "二洲",
        "lat": 22.56402,
        "lng": 113.50112,
        "capacity": 20,
        "availBike": 14,
        "address": "广东省中山市中山市市辖区东阳南路"
    },
    {
        "id": 8020,
        "name": "坦洲新中学",
        "lat": 22.261206,
        "lng": 113.45053,
        "capacity": 40,
        "availBike": 17,
        "address": "广东省中山市中山市市辖区联中路"
    },
    {
        "id": 145,
        "name": "三溪村西",
        "lat": 22.498344,
        "lng": 113.42039,
        "capacity": 20,
        "availBike": 10,
        "address": "广东省中山市中山市市辖区南外环路"
    },
    {
        "id": 257,
        "name": "西区中心小学",
        "lat": 22.534637,
        "lng": 113.349594,
        "capacity": 20,
        "availBike": 9,
        "address": "广东省中山市中山市市辖区G105(狮滘口大桥)"
    },
    {
        "id": 1003,
        "name": "五步e家",
        "lat": 22.365555,
        "lng": 113.44223,
        "capacity": 20,
        "availBike": 12,
        "address": "广东省中山市中山市市辖区宝元大道商铺-19号"
    },
    {
        "id": 1057,
        "name": "城建大楼",
        "lat": 22.356783,
        "lng": 113.435646,
        "capacity": 16,
        "availBike": 9,
        "address": "广东省中山市中山市市辖区环镇路58号"
    },
    {
        "id": 30,
        "name": "军分区",
        "lat": 22.494806,
        "lng": 113.39665,
        "capacity": 20,
        "availBike": 8,
        "address": "广东省中山市中山市市辖区新安路"
    },
    {
        "id": 1064,
        "name": "顺昌广场正门",
        "lat": 22.363045,
        "lng": 113.44308,
        "capacity": 24,
        "availBike": 14,
        "address": "广东省中山市中山市市辖区建设路5号"
    },
    {
        "id": 1069,
        "name": "三乡医院",
        "lat": 22.351645,
        "lng": 113.421646,
        "capacity": 18,
        "availBike": 13,
        "address": "广东省中山市中山市市辖区皇冠路"
    },
    {
        "id": 2048,
        "name": "曹三小学",
        "lat": 22.617012,
        "lng": 113.20525,
        "capacity": 30,
        "availBike": 15,
        "address": "广东省中山市中山市市辖区东兴东路"
    },
    {
        "id": 2003,
        "name": "欧普照明",
        "lat": 22.654484,
        "lng": 113.19961,
        "capacity": 30,
        "availBike": 19,
        "address": "广东省中山市中山市市辖区名木一条街"
    },
    {
        "id": 8044,
        "name": "七村市场",
        "lat": 22.267958,
        "lng": 113.48508,
        "capacity": 20,
        "availBike": 8,
        "address": "广东省中山市中山市市辖区南坦路203"
    },
    {
        "id": 1097,
        "name": "华财古玩城",
        "lat": 22.317957,
        "lng": 113.47371,
        "capacity": 20,
        "availBike": 8,
        "address": "广东省中山市中山市市辖区西部沿海高速公路"
    },
    {
        "id": 1336,
        "name": "玉泉酒店",
        "lat": 22.56647,
        "lng": 113.495056,
        "capacity": 20,
        "availBike": 8,
        "address": "广东省中山市中山市市辖区会展东路"
    },
    {
        "id": 2026,
        "name": "利美购物广场",
        "lat": 22.599457,
        "lng": 113.185394,
        "capacity": 20,
        "availBike": 14,
        "address": "广东省中山市中山市市辖区西岸南路"
    },
    {
        "id": 7,
        "name": "紫马岭公园西门",
        "lat": 22.508472,
        "lng": 113.40302,
        "capacity": 30,
        "availBike": 17,
        "address": "广东省中山市中山市市辖区贝东街19"
    },
    {
        "id": 1329,
        "name": "火炬区管委会",
        "lat": 22.55936,
        "lng": 113.47573,
        "capacity": 20,
        "availBike": 10,
        "address": "广东省中山市中山市市辖区工业大道213号"
    },
    {
        "id": 1169,
        "name": "雅居乐时兴",
        "lat": 22.346937,
        "lng": 113.4031,
        "capacity": 14,
        "availBike": 5,
        "address": "广东省中山市中山市市辖区G94(珠三角环线高速公路)"
    },
    {
        "id": 1191,
        "name": "东安居",
        "lat": 22.365623,
        "lng": 113.45175,
        "capacity": 20,
        "availBike": 12,
        "address": "广东省中山市中山市市辖区新城路"
    },
    {
        "id": 1176,
        "name": "雅居乐一期广场",
        "lat": 22.355192,
        "lng": 113.44044,
        "capacity": 18,
        "availBike": 6,
        "address": "广东省中山市中山市市辖区新下冲街五巷"
    },
    {
        "id": 66,
        "name": "老干中心",
        "lat": 22.516779,
        "lng": 113.38218,
        "capacity": 24,
        "availBike": 8,
        "address": "广东省中山市中山市市辖区南仓街"
    },
    {
        "id": 1039,
        "name": "大记酒楼",
        "lat": 22.348318,
        "lng": 113.41981,
        "capacity": 20,
        "availBike": 13,
        "address": "广东省中山市中山市市辖区茫埠园路"
    },
    {
        "id": 96,
        "name": "悦来路民权路口",
        "lat": 22.516323,
        "lng": 113.36953,
        "capacity": 30,
        "availBike": 14,
        "address": "广东省中山市中山市市辖区光华街23号"
    },
    {
        "id": 1041,
        "name": "第二工业区站",
        "lat": 22.347225,
        "lng": 113.41453,
        "capacity": 20,
        "availBike": 16,
        "address": "广东省中山市中山市市辖区金凤路"
    },
    {
        "id": 34,
        "name": "半山翠苑",
        "lat": 22.520123,
        "lng": 113.393524,
        "capacity": 20,
        "availBike": 7,
        "address": "广东省中山市中山市市辖区中山三路49号"
    },
    {
        "id": 909,
        "name": "华侨高中部2",
        "lat": 22.5459,
        "lng": 113.392845,
        "capacity": 30,
        "availBike": 15,
        "address": "广东省中山市中山市市辖区东明街2号"
    },
    {
        "id": 8,
        "name": "新村市场",
        "lat": 22.505222,
        "lng": 113.403656,
        "capacity": 22,
        "availBike": 22,
        "address": "广东省中山市中山市市辖区兴文路3号"
    },
    {
        "id": 8021,
        "name": "坦洲山公园",
        "lat": 22.261406,
        "lng": 113.46143,
        "capacity": 18,
        "availBike": 8,
        "address": "广东省中山市中山市市辖区建设大街"
    },
    {
        "id": 1170,
        "name": "凯悦名门",
        "lat": 22.337692,
        "lng": 113.42056,
        "capacity": 20,
        "availBike": 5,
        "address": "广东省中山市中山市市辖区G94(珠三角环线高速公路)"
    },
    {
        "id": 2044,
        "name": "海洲市场",
        "lat": 22.662378,
        "lng": 113.18296,
        "capacity": 18,
        "availBike": 11,
        "address": "广东省中山市中山市市辖区东岸西路"
    },
    {
        "id": 2014,
        "name": "古镇镇政府",
        "lat": 22.612175,
        "lng": 113.19204,
        "capacity": 40,
        "availBike": 23,
        "address": "广东省中山市中山市市辖区岐江路北2巷"
    },
    {
        "id": 188,
        "name": "翠景文化中心",
        "lat": 22.523746,
        "lng": 113.34888,
        "capacity": 30,
        "availBike": 11,
        "address": "广东省中山市中山市市辖区岐沙路4号"
    },
    {
        "id": 1343,
        "name": "尚城",
        "lat": 22.528097,
        "lng": 113.43046,
        "capacity": 20,
        "availBike": 5,
        "address": "广东省中山市中山市市辖区上陂头村正街73号"
    },
    {
        "id": 1178,
        "name": "新圩派出所",
        "lat": 22.325214,
        "lng": 113.46667,
        "capacity": 16,
        "availBike": 4,
        "address": "广东省中山市中山市市辖区S268(沙坦路)"
    },
    {
        "id": 8025,
        "name": "合胜村社区",
        "lat": 22.253502,
        "lng": 113.46461,
        "capacity": 20,
        "availBike": 11,
        "address": "广东省中山市中山市市辖区新一街"
    },
    {
        "id": 19,
        "name": "永怡花园市场",
        "lat": 22.524796,
        "lng": 113.39647,
        "capacity": 20,
        "availBike": 0,
        "address": "广东省中山市中山市市辖区兴中道8-之3"
    },
    {
        "id": 125,
        "name": "第一城",
        "lat": 22.50604,
        "lng": 113.36247,
        "capacity": 40,
        "availBike": 21,
        "address": "广东省中山市中山市市辖区华光路95号"
    },
    {
        "id": 157,
        "name": "西区电脑城",
        "lat": 22.521793,
        "lng": 113.36013,
        "capacity": 30,
        "availBike": 16,
        "address": "广东省中山市中山市市辖区西河东路"
    },
    {
        "id": 173,
        "name": "东区社保分局",
        "lat": 22.534548,
        "lng": 113.40888,
        "capacity": 20,
        "availBike": 8,
        "address": "广东省中山市中山市市辖区三横街24号"
    },
    {
        "id": 1316,
        "name": "逸港花园",
        "lat": 22.553406,
        "lng": 113.47028,
        "capacity": 20,
        "availBike": 8,
        "address": "广东省中山市中山市市辖区环仔巷"
    },
    {
        "id": 954,
        "name": "金钟水库驿站2",
        "lat": 22.484787,
        "lng": 113.39099,
        "capacity": 30,
        "availBike": 14,
        "address": "广东省中山市中山市市辖区新安大街"
    },
    {
        "id": 84,
        "name": "南下码头",
        "lat": 22.505163,
        "lng": 113.37882,
        "capacity": 18,
        "availBike": 8,
        "address": "广东省中山市中山市市辖区Y007(广珠公路)"
    },
    {
        "id": 81,
        "name": "银通街博爱路口",
        "lat": 22.503855,
        "lng": 113.385345,
        "capacity": 20,
        "availBike": 12,
        "address": "广东省中山市中山市市辖区银通路"
    },
    {
        "id": 133,
        "name": "东区防护所",
        "lat": 22.51773,
        "lng": 113.40531,
        "capacity": 24,
        "availBike": 11,
        "address": "广东省中山市中山市市辖区中山四路78号"
    },
    {
        "id": 390,
        "name": "蔷薇山庄西门",
        "lat": 22.525288,
        "lng": 113.4096,
        "capacity": 30,
        "availBike": 13,
        "address": "广东省中山市中山市市辖区大街40号"
    },
    {
        "id": 1322,
        "name": "开发区医院",
        "lat": 22.536182,
        "lng": 113.45992,
        "capacity": 30,
        "availBike": 11,
        "address": "广东省中山市中山市市辖区Y004(江陵西路)"
    },
    {
        "id": 42,
        "name": "翡翠花园西门",
        "lat": 22.509012,
        "lng": 113.39243,
        "capacity": 30,
        "availBike": 19,
        "address": "广东省中山市中山市市辖区博爱四路"
    },
    {
        "id": 2015,
        "name": "兴业银行",
        "lat": 22.61142,
        "lng": 113.19501,
        "capacity": 28,
        "availBike": 13,
        "address": "广东省中山市中山市市辖区中兴大道中14号"
    },
    {
        "id": 2237,
        "name": "曹一公园2",
        "lat": 22.62955,
        "lng": 113.195274,
        "capacity": 20,
        "availBike": 0,
        "address": "广东省中山市中山市市辖区曹兴西路32号"
    },
    {
        "id": 2030,
        "name": "古四村委会",
        "lat": 22.615244,
        "lng": 113.17691,
        "capacity": 20,
        "availBike": 10,
        "address": "广东省中山市中山市市辖区横一路26号"
    },
    {
        "id": 67,
        "name": "华苑大街路口",
        "lat": 22.516577,
        "lng": 113.38574,
        "capacity": 32,
        "availBike": 14,
        "address": "广东省中山市中山市市辖区岐关西路20号"
    },
    {
        "id": 414,
        "name": "长江水世界",
        "lat": 22.4868,
        "lng": 113.44594,
        "capacity": 30,
        "availBike": 11,
        "address": "广东省中山市中山市市辖区怡景路"
    },
    {
        "id": 472,
        "name": "环茂一路",
        "lat": 22.536339,
        "lng": 113.47413,
        "capacity": 20,
        "availBike": 0,
        "address": "广东省中山市中山市市辖区Y004(岐关东路)"
    },
    {
        "id": 6,
        "name": "盛景园南",
        "lat": 22.51214,
        "lng": 113.40176,
        "capacity": 20,
        "availBike": 20,
        "address": "广东省中山市中山市市辖区库充大街35号"
    },
    {
        "id": 462,
        "name": "东河北别墅区南门",
        "lat": 22.553604,
        "lng": 113.39481,
        "capacity": 30,
        "availBike": 9,
        "address": "广东省中山市中山市市辖区海景路10号"
    },
    {
        "id": 1363,
        "name": "临海兆鸿模具",
        "lat": 22.5497,
        "lng": 113.604546,
        "capacity": 30,
        "availBike": 10,
        "address": "广东省中山市中山市市辖区"
    },
    {
        "id": 64,
        "name": "威力村",
        "lat": 22.51904,
        "lng": 113.38551,
        "capacity": 22,
        "availBike": 3,
        "address": "广东省中山市中山市市辖区中山二路80号"
    },
    {
        "id": 1604,
        "name": "美景康城",
        "lat": 22.57407,
        "lng": 113.391174,
        "capacity": 16,
        "availBike": 4,
        "address": "广东省中山市中山市市辖区木河迳二街5号"
    },
    {
        "id": 1348,
        "name": "临海广新海工",
        "lat": 22.561995,
        "lng": 113.615105,
        "capacity": 30,
        "availBike": 22,
        "address": "广东省中山市中山市市辖区X575"
    },
    {
        "id": 1198,
        "name": "东城畔山",
        "lat": 22.381725,
        "lng": 113.44298,
        "capacity": 20,
        "availBike": 8,
        "address": "广东省中山市中山市市辖区小琅环路"
    },
    {
        "id": 57,
        "name": "大信新都汇1",
        "lat": 22.532318,
        "lng": 113.38296,
        "capacity": 42,
        "availBike": 16,
        "address": "广东省中山市中山市市辖区延龄路10号"
    },
    {
        "id": 134,
        "name": "奕翠园",
        "lat": 22.51948,
        "lng": 113.409676,
        "capacity": 30,
        "availBike": 17,
        "address": "广东省中山市中山市市辖区金来街"
    },
    {
        "id": 1342,
        "name": "得能湖西门",
        "lat": 22.556936,
        "lng": 113.47844,
        "capacity": 20,
        "availBike": 14,
        "address": "广东省中山市中山市市辖区逸仙路"
    },
    {
        "id": 1067,
        "name": "平东市场",
        "lat": 22.33796,
        "lng": 113.43359,
        "capacity": 20,
        "availBike": 13,
        "address": "广东省中山市中山市市辖区G105"
    },
    {
        "id": 29,
        "name": "交警支队",
        "lat": 22.4988,
        "lng": 113.397835,
        "capacity": 30,
        "availBike": 22,
        "address": "广东省中山市中山市市辖区南外环路"
    },
    {
        "id": 127,
        "name": "南安路东",
        "lat": 22.509857,
        "lng": 113.37148,
        "capacity": 30,
        "availBike": 9,
        "address": "广东省中山市中山市市辖区步行西街62号"
    },
    {
        "id": 167,
        "name": "大信海岸家园",
        "lat": 22.554632,
        "lng": 113.38627,
        "capacity": 40,
        "availBike": 22,
        "address": "广东省中山市中山市市辖区江滨西路"
    },
    {
        "id": 1082,
        "name": "罗三妹山公园",
        "lat": 22.373602,
        "lng": 113.466576,
        "capacity": 16,
        "availBike": 9,
        "address": "广东省中山市中山市市辖区雍陌上街"
    },
    {
        "id": 8017,
        "name": "公安(教工)宿舍",
        "lat": 22.267202,
        "lng": 113.46495,
        "capacity": 30,
        "availBike": 5,
        "address": "广东省中山市中山市市辖区北秀新村一巷62号"
    },
    {
        "id": 187,
        "name": "翠景湾",
        "lat": 22.526749,
        "lng": 113.34775,
        "capacity": 30,
        "availBike": 14,
        "address": "广东省中山市中山市市辖区云汉路2号"
    },
    {
        "id": 1167,
        "name": "东城花园后门",
        "lat": 22.346905,
        "lng": 113.43871,
        "capacity": 14,
        "availBike": 5,
        "address": "广东省中山市中山市市辖区商业大街242号"
    },